{
  "updated": [
    {
      "name": "Miếu Bà Chúa Xứ Núi Sam",
      "province": "An Giang",
      "oldLat": 10.6821149,
      "oldLng": 105.0801686,
      "newLat": 10.694444,
      "newLng": 105.091667,
      "osmDisplayName": "Miếu Bà Chúa Xứ Núi Sam",
      "confidence": 0.9,
      "errorKm": 1.86
    },
    {
      "name": "Chùa Tây An",
      "province": "An Giang",
      "oldLat": 10.6811524,
      "oldLng": 105.0809482,
      "newLat": 10.694444,
      "newLng": 105.091667,
      "osmDisplayName": "Chùa Tây An",
      "confidence": 0.9,
      "errorKm": 1.89
    },
    {
      "name": "Khu di tích Óc Eo",
      "province": "An Giang",
      "oldLat": 10.4167,
      "oldLng": 105.1667,
      "newLat": 10.533333,
      "newLng": 105.166667,
      "osmDisplayName": "Khu di tích Óc Eo",
      "confidence": 0.6,
      "errorKm": 12.97
    },
    {
      "name": "Làng Chăm Châu Phong",
      "province": "An Giang",
      "oldLat": 10.35,
      "oldLng": 105.0833,
      "newLat": 10.7,
      "newLng": 105.116667,
      "osmDisplayName": "Làng Chăm Châu Phong",
      "confidence": 0.6,
      "errorKm": 39.09
    },
    {
      "name": "Bạch Dinh",
      "province": "Bà Rịa - Vũng Tàu",
      "oldLat": 10.3507825,
      "oldLng": 107.0685887,
      "newLat": 10.333333,
      "newLng": 107.083333,
      "osmDisplayName": "Bạch Dinh",
      "confidence": 0.9,
      "errorKm": 2.52
    },
    {
      "name": "Hải đăng Vũng Tàu",
      "province": "Bà Rịa - Vũng Tàu",
      "oldLat": 10.3341077,
      "oldLng": 107.0776554,
      "newLat": 10.333333,
      "newLng": 107.083333,
      "osmDisplayName": "Hải đăng Vũng Tàu",
      "confidence": 0.9,
      "errorKm": 0.63
    },
    {
      "name": "Khu bảo tồn thiên nhiên Bình Châu - Phước Bửu",
      "province": "Bà Rịa - Vũng Tàu",
      "oldLat": 10.5565467,
      "oldLng": 107.5139557,
      "newLat": 10.583333,
      "newLng": 107.416667,
      "osmDisplayName": "Khu bảo tồn thiên nhiên Bình Châu - Phước Bửu",
      "confidence": 0.6,
      "errorKm": 11.04
    },
    {
      "name": "Nhà công tử Bạc Liêu",
      "province": "Bạc Liêu",
      "oldLat": 9.2841226,
      "oldLng": 105.7233534,
      "newLat": 9.283333,
      "newLng": 105.716667,
      "osmDisplayName": "Nhà công tử Bạc Liêu",
      "confidence": 0.9,
      "errorKm": 0.74
    },
    {
      "name": "Quán âm Phật đài",
      "province": "Bạc Liêu",
      "oldLat": 10.6180748,
      "oldLng": 104.9972866,
      "newLat": 9.283333,
      "newLng": 105.716667,
      "osmDisplayName": "Quán âm Phật đài",
      "confidence": 0.3,
      "errorKm": 168.03
    },
    {
      "name": "Khu căn cứ Tỉnh ủy Bạc Liêu",
      "province": "Bạc Liêu",
      "oldLat": 9.25,
      "oldLng": 105.7,
      "newLat": 9.283333,
      "newLng": 105.716667,
      "osmDisplayName": "Khu căn cứ Tỉnh ủy Bạc Liêu",
      "confidence": 0.9,
      "errorKm": 4.13
    },
    {
      "name": "Vườn chim Bạc Liêu",
      "province": "Bạc Liêu",
      "oldLat": 9.2400388,
      "oldLng": 105.7163625,
      "newLat": 9.283333,
      "newLng": 105.716667,
      "osmDisplayName": "Vườn chim Bạc Liêu",
      "confidence": 0.9,
      "errorKm": 4.81
    },
    {
      "name": "Chùa Vĩnh Nghiêm",
      "province": "Bắc Giang",
      "oldLat": 10.7903966,
      "oldLng": 106.6823772,
      "newLat": 10.694444,
      "newLng": 105.091667,
      "osmDisplayName": "Chùa Vĩnh Nghiêm",
      "confidence": 0.3,
      "errorKm": 174.11
    },
    {
      "name": "Khu di tích chiến thắng Xương Giang",
      "province": "Bắc Giang",
      "oldLat": 21.3,
      "oldLng": 106.2,
      "newLat": 10.533333,
      "newLng": 105.166667,
      "osmDisplayName": "Khu di tích chiến thắng Xương Giang",
      "confidence": 0.3,
      "errorKm": 1202.27
    },
    {
      "name": "Làng gốm Thổ Hà",
      "province": "Bắc Giang",
      "oldLat": 21.2047117,
      "oldLng": 106.0406271,
      "newLat": 10.7,
      "newLng": 105.116667,
      "osmDisplayName": "Làng gốm Thổ Hà",
      "confidence": 0.3,
      "errorKm": 1172.23
    },
    {
      "name": "Hồ Cấm Sơn",
      "province": "Bắc Giang",
      "oldLat": 21.5316375,
      "oldLng": 106.5591361,
      "newLat": 21.4,
      "newLng": 106.6,
      "osmDisplayName": "Hồ Cấm Sơn",
      "confidence": 0.6,
      "errorKm": 15.24
    },
    {
      "name": "Hồ Ba Bể",
      "province": "Bắc Kạn",
      "oldLat": 22.4189733,
      "oldLng": 105.6152274,
      "newLat": 22.4,
      "newLng": 105.616667,
      "osmDisplayName": "Hồ Ba Bể",
      "confidence": 0.9,
      "errorKm": 2.11
    },
    {
      "name": "Động Puông",
      "province": "Bắc Kạn",
      "oldLat": 22.4624819,
      "oldLng": 105.6526969,
      "newLat": 22.4,
      "newLng": 105.616667,
      "osmDisplayName": "Động Puông",
      "confidence": 0.9,
      "errorKm": 7.87
    },
    {
      "name": "Thác Đầu Đẳng",
      "province": "Bắc Kạn",
      "oldLat": 22.4514719,
      "oldLng": 105.5685782,
      "newLat": 22.4,
      "newLng": 105.616667,
      "osmDisplayName": "Thác Đầu Đẳng",
      "confidence": 0.9,
      "errorKm": 7.56
    },
    {
      "name": "Chùa Thượng (Chùa Bà Bể)",
      "province": "Bắc Kạn",
      "oldLat": 22.4,
      "oldLng": 105.6167,
      "newLat": 10.694444,
      "newLng": 105.091667,
      "osmDisplayName": "Chùa Thượng (Chùa Bà Bể)",
      "confidence": 0.3,
      "errorKm": 1302.8
    },
    {
      "name": "Chùa Dâu",
      "province": "Bắc Ninh",
      "oldLat": 21.0358692,
      "oldLng": 106.0425161,
      "newLat": 10.694444,
      "newLng": 105.091667,
      "osmDisplayName": "Chùa Dâu",
      "confidence": 0.3,
      "errorKm": 1154.39
    },
    {
      "name": "Đền Đô",
      "province": "Bắc Ninh",
      "oldLat": 21.107029,
      "oldLng": 105.9597712,
      "newLat": 21.066667,
      "newLng": 106.066667,
      "osmDisplayName": "Đền Đô",
      "confidence": 0.6,
      "errorKm": 11.96
    },
    {
      "name": "Làng tranh Đông Hồ",
      "province": "Bắc Ninh",
      "oldLat": 21.05,
      "oldLng": 106.1167,
      "newLat": 10.7,
      "newLng": 105.116667,
      "osmDisplayName": "Làng tranh Đông Hồ",
      "confidence": 0.3,
      "errorKm": 1155.81
    },
    {
      "name": "Chùa Bút Tháp",
      "province": "Bắc Ninh",
      "oldLat": 21.0610828,
      "oldLng": 106.0221975,
      "newLat": 10.694444,
      "newLng": 105.091667,
      "osmDisplayName": "Chùa Bút Tháp",
      "confidence": 0.3,
      "errorKm": 1156.99
    },
    {
      "name": "Cồn Phụng",
      "province": "Bến Tre",
      "oldLat": 9.8723809,
      "oldLng": 106.4813132,
      "newLat": 10.233333,
      "newLng": 106.383333,
      "osmDisplayName": "Cồn Phụng",
      "confidence": 0.6,
      "errorKm": 41.54
    },
    {
      "name": "Làng nghề kẹo dừa Bến Tre",
      "province": "Bến Tre",
      "oldLat": 10.2333,
      "oldLng": 106.3667,
      "newLat": 10.2419,
      "newLng": 106.3753,
      "osmDisplayName": "Làng nghề kẹo dừa Bến Tre",
      "confidence": 0.9,
      "errorKm": 1.34
    },
    {
      "name": "Vườn trái cây Cái Mơn",
      "province": "Bến Tre",
      "oldLat": 10.2,
      "oldLng": 106.3,
      "newLat": 10.2167,
      "newLng": 106.35,
      "osmDisplayName": "Vườn trái cây Cái Mơn",
      "confidence": 0.9,
      "errorKm": 5.78
    },
    {
      "name": "Khu di tích Đồng Khởi",
      "province": "Bến Tre",
      "oldLat": 10.25,
      "oldLng": 106.3833,
      "newLat": 10.2333,
      "newLng": 106.3833,
      "osmDisplayName": "Khu di tích Đồng Khởi",
      "confidence": 0.9,
      "errorKm": 1.86
    },
    {
      "name": "Chùa Hội Khánh",
      "province": "Bình Dương",
      "oldLat": 10.9816316,
      "oldLng": 106.6591038,
      "newLat": 10.9833,
      "newLng": 106.65,
      "osmDisplayName": "Chùa Hội Khánh",
      "confidence": 0.9,
      "errorKm": 1.01
    },
    {
      "name": "Nhà tù Phú Lợi",
      "province": "Bình Dương",
      "oldLat": 10.9914923,
      "oldLng": 106.6824825,
      "newLat": 10.9833,
      "newLng": 106.6667,
      "osmDisplayName": "Nhà tù Phú Lợi",
      "confidence": 0.9,
      "errorKm": 1.95
    },
    {
      "name": "Làng gốm sứ Bình Dương",
      "province": "Bình Dương",
      "oldLat": 10.97,
      "oldLng": 106.67,
      "newLat": 10.2419,
      "newLng": 106.3753,
      "osmDisplayName": "Làng gốm sứ Bình Dương",
      "confidence": 0.6,
      "errorKm": 87.13
    },
    {
      "name": "Tháp Đôi",
      "province": "Bình Định",
      "oldLat": 13.7862534,
      "oldLng": 109.2110825,
      "newLat": 13.8833,
      "newLng": 109.1167,
      "osmDisplayName": "Tháp Đôi",
      "confidence": 0.6,
      "errorKm": 14.84
    },
    {
      "name": "Bảo tàng Quang Trung",
      "province": "Bình Định",
      "oldLat": 13.9239229,
      "oldLng": 108.9208862,
      "newLat": 13.8833,
      "newLng": 109.1167,
      "osmDisplayName": "Bảo tàng Quang Trung",
      "confidence": 0.6,
      "errorKm": 21.61
    },
    {
      "name": "Chùa Long Khánh",
      "province": "Bình Định",
      "oldLat": 10.6573526,
      "oldLng": 106.7995438,
      "newLat": 10.9833,
      "newLng": 106.65,
      "osmDisplayName": "Chùa Long Khánh",
      "confidence": 0.6,
      "errorKm": 39.75
    },
    {
      "name": "Khu du lịch Ghềnh Ráng",
      "province": "Bình Định",
      "oldLat": 13.7433186,
      "oldLng": 109.2147633,
      "newLat": 10.2333,
      "newLng": 106.3833,
      "osmDisplayName": "Khu du lịch Ghềnh Ráng",
      "confidence": 0.3,
      "errorKm": 497.14
    },
    {
      "name": "Vườn quốc gia Bù Gia Mập",
      "province": "Bình Phước",
      "oldLat": 12.1840345,
      "oldLng": 107.1587697,
      "newLat": 10.2167,
      "newLng": 106.35,
      "osmDisplayName": "Vườn quốc gia Bù Gia Mập",
      "confidence": 0.3,
      "errorKm": 235.87
    },
    {
      "name": "Di tích lịch sử Sóc Bom Bo",
      "province": "Bình Phước",
      "oldLat": 11.85,
      "oldLng": 106.9,
      "newLat": 10.2333,
      "newLng": 106.3833,
      "osmDisplayName": "Di tích lịch sử Sóc Bom Bo",
      "confidence": 0.3,
      "errorKm": 188.41
    },
    {
      "name": "Chùa Phước Sơn",
      "province": "Bình Phước",
      "oldLat": 11.8329865,
      "oldLng": 106.9933362,
      "newLat": 10.9833,
      "newLng": 106.65,
      "osmDisplayName": "Chùa Phước Sơn",
      "confidence": 0.3,
      "errorKm": 101.62
    },
    {
      "name": "Thác Mơ",
      "province": "Bình Phước",
      "oldLat": 14.0217837,
      "oldLng": 107.6050329,
      "newLat": 11.9833,
      "newLng": 106.9833,
      "osmDisplayName": "Thác Mơ",
      "confidence": 0.3,
      "errorKm": 236.47
    },
    {
      "name": "Tháp Chăm Po Sah Inư",
      "province": "Bình Thuận",
      "oldLat": 10.9360535,
      "oldLng": 108.1461223,
      "newLat": 13.8833,
      "newLng": 109.1167,
      "osmDisplayName": "Tháp Chăm Po Sah Inư",
      "confidence": 0.3,
      "errorKm": 344.25
    },
    {
      "name": "Bãi biển Mũi Né",
      "province": "Bình Thuận",
      "oldLat": 10.95,
      "oldLng": 108.3,
      "newLat": 10.9333,
      "newLng": 108.3,
      "osmDisplayName": "Bãi biển Mũi Né",
      "confidence": 0.9,
      "errorKm": 1.86
    },
    {
      "name": "Dinh Vạn Thủy Tú",
      "province": "Bình Thuận",
      "oldLat": 10.9231943,
      "oldLng": 108.1000501,
      "newLat": 10.9333,
      "newLng": 108.1,
      "osmDisplayName": "Dinh Vạn Thủy Tú",
      "confidence": 0.9,
      "errorKm": 1.12
    },
    {
      "name": "Làng gốm Bàu Trúc",
      "province": "Bình Thuận",
      "oldLat": 11.5,
      "oldLng": 108.9,
      "newLat": 10.2419,
      "newLng": 106.3753,
      "osmDisplayName": "Làng gốm Bàu Trúc",
      "confidence": 0.3,
      "errorKm": 309.15
    },
    {
      "name": "Vườn quốc gia Mũi Cà Mau",
      "province": "Cà Mau",
      "oldLat": 8.6977344,
      "oldLng": 104.834501,
      "newLat": 10.2167,
      "newLng": 106.35,
      "osmDisplayName": "Vườn quốc gia Mũi Cà Mau",
      "confidence": 0.3,
      "errorKm": 236.97
    },
    {
      "name": "Đền thờ Bác Hồ",
      "province": "Cà Mau",
      "oldLat": 9.3806161,
      "oldLng": 105.642928,
      "newLat": 10.9833,
      "newLng": 106.65,
      "osmDisplayName": "Đền thờ Bác Hồ",
      "confidence": 0.3,
      "errorKm": 209.54
    },
    {
      "name": "Khu du lịch sinh thái Đất Mũi",
      "province": "Cà Mau",
      "oldLat": 8.62,
      "oldLng": 104.78,
      "newLat": 10.2333,
      "newLng": 106.3833,
      "osmDisplayName": "Khu du lịch sinh thái Đất Mũi",
      "confidence": 0.3,
      "errorKm": 251.22
    },
    {
      "name": "Thác Bản Giốc",
      "province": "Cao Bằng",
      "oldLat": 22.8539003,
      "oldLng": 106.7232867,
      "newLat": 11.9833,
      "newLng": 106.9833,
      "osmDisplayName": "Thác Bản Giốc",
      "confidence": 0.3,
      "errorKm": 1209.07
    },
    {
      "name": "Khu di tích Pác Bó",
      "province": "Cao Bằng",
      "oldLat": 22.7,
      "oldLng": 106.5,
      "newLat": 10.2333,
      "newLng": 106.3833,
      "osmDisplayName": "Khu di tích Pác Bó",
      "confidence": 0.3,
      "errorKm": 1386.29
    },
    {
      "name": "Chùa Phật Tích Trúc Lâm",
      "province": "Cao Bằng",
      "oldLat": 22.65,
      "oldLng": 106.55,
      "newLat": 22.6725,
      "newLng": 106.25,
      "osmDisplayName": "Chùa Phật Tích Trúc Lâm",
      "confidence": 0.6,
      "errorKm": 30.88
    },
    {
      "name": "Làng đá cổ Khuổi Ky",
      "province": "Cao Bằng",
      "oldLat": 22.8,
      "oldLng": 106.6,
      "newLat": 22.7,
      "newLng": 106.3,
      "osmDisplayName": "Làng đá cổ Khuổi Ky",
      "confidence": 0.6,
      "errorKm": 32.71
    },
    {
      "name": "Chợ nổi Cái Răng",
      "province": "Cần Thơ",
      "oldLat": 10.0023957,
      "oldLng": 105.7443925,
      "newLat": 10.033333,
      "newLng": 105.783333,
      "osmDisplayName": "Chợ nổi Cái Răng",
      "confidence": 0.9,
      "errorKm": 5.48
    },
    {
      "name": "Bến Ninh Kiều",
      "province": "Cần Thơ",
      "oldLat": 10.0315282,
      "oldLng": 105.7875681,
      "newLat": 10.033333,
      "newLng": 105.783333,
      "osmDisplayName": "Bến Ninh Kiều",
      "confidence": 0.9,
      "errorKm": 0.51
    },
    {
      "name": "Chùa Ông (Quảng Triệu Hội Quán)",
      "province": "Cần Thơ",
      "oldLat": 10.0333,
      "oldLng": 105.7833,
      "newLat": 22.6725,
      "newLng": 106.25,
      "osmDisplayName": "Chùa Ông (Quảng Triệu Hội Quán)",
      "confidence": 0.3,
      "errorKm": 1406.29
    },
    {
      "name": "Động Tam Thanh",
      "province": "Lạng Sơn",
      "oldLat": 21.8555666,
      "oldLng": 106.7467985,
      "newLat": 21.85,
      "newLng": 106.75,
      "osmDisplayName": "Động Tam Thanh",
      "confidence": 0.9,
      "errorKm": 0.7
    },
    {
      "name": "Thành Nhà Mạc",
      "province": "Lạng Sơn",
      "oldLat": 21.3724512,
      "oldLng": 106.448348,
      "newLat": 10.033333,
      "newLng": 105.783333,
      "osmDisplayName": "Thành Nhà Mạc",
      "confidence": 0.3,
      "errorKm": 1262.85
    },
    {
      "name": "Chùa Tân Thanh",
      "province": "Lạng Sơn",
      "oldLat": 20.261275,
      "oldLng": 105.9484708,
      "newLat": 22.6725,
      "newLng": 106.25,
      "osmDisplayName": "Chùa Tân Thanh",
      "confidence": 0.3,
      "errorKm": 269.93
    },
    {
      "name": "Sa Pa",
      "province": "Lào Cai",
      "oldLat": 22.3153883,
      "oldLng": 103.8399788,
      "newLat": 22.333333,
      "newLng": 103.833333,
      "osmDisplayName": "Sa Pa",
      "confidence": 0.9,
      "errorKm": 2.11
    },
    {
      "name": "Đền Thượng Lào Cai",
      "province": "Lào Cai",
      "oldLat": 22.5096077,
      "oldLng": 103.9681621,
      "newLat": 22.5,
      "newLng": 103.966667,
      "osmDisplayName": "Đền Thượng Lào Cai",
      "confidence": 0.9,
      "errorKm": 1.08
    },
    {
      "name": "Chợ Bắc Hà",
      "province": "Lào Cai",
      "oldLat": 22.5355989,
      "oldLng": 104.2918025,
      "newLat": 22.5,
      "newLng": 104.3,
      "osmDisplayName": "Chợ Bắc Hà",
      "confidence": 0.9,
      "errorKm": 4.05
    },
    {
      "name": "Khu di tích lịch sử Vàm Nhựt Tảo",
      "province": "Long An",
      "oldLat": 10.5611303,
      "oldLng": 106.5175639,
      "newLat": 10.5,
      "newLng": 106.5,
      "osmDisplayName": "Khu di tích lịch sử Vàm Nhựt Tảo",
      "confidence": 0.9,
      "errorKm": 7.06
    },
    {
      "name": "Chùa Tôn Thạnh",
      "province": "Long An",
      "oldLat": 11.8459836,
      "oldLng": 106.9843018,
      "newLat": 22.6725,
      "newLng": 106.25,
      "osmDisplayName": "Chùa Tôn Thạnh",
      "confidence": 0.3,
      "errorKm": 1206.37
    },
    {
      "name": "Làng nghề đan lát Long An",
      "province": "Long An",
      "oldLat": 10.58,
      "oldLng": 106.45,
      "newLat": 22.7,
      "newLng": 106.3,
      "osmDisplayName": "Làng nghề đan lát Long An",
      "confidence": 0.3,
      "errorKm": 1347.78
    },
    {
      "name": "Đền Trần",
      "province": "Nam Định",
      "oldLat": 20.4559664,
      "oldLng": 106.1679446,
      "newLat": 22.5,
      "newLng": 103.966667,
      "osmDisplayName": "Đền Trần",
      "confidence": 0.3,
      "errorKm": 321.76
    },
    {
      "name": "Chùa Cổ Lễ",
      "province": "Nam Định",
      "oldLat": 20.2743317,
      "oldLng": 106.2740523,
      "newLat": 22.6725,
      "newLng": 106.25,
      "osmDisplayName": "Chùa Cổ Lễ",
      "confidence": 0.3,
      "errorKm": 266.68
    },
    {
      "name": "Bảo tàng tỉnh Nam Định",
      "province": "Nam Định",
      "oldLat": 20.423274,
      "oldLng": 106.1740924,
      "newLat": 10.033333,
      "newLng": 105.783333,
      "osmDisplayName": "Bảo tàng tỉnh Nam Định",
      "confidence": 0.3,
      "errorKm": 1156.07
    },
    {
      "name": "Quê Bác Hồ (Kim Liên)",
      "province": "Nghệ An",
      "oldLat": 18.68,
      "oldLng": 105.58,
      "newLat": 18.683333,
      "newLng": 105.666667,
      "osmDisplayName": "Quê Bác Hồ (Kim Liên)",
      "confidence": 0.9,
      "errorKm": 9.14
    },
    {
      "name": "Đền Cuông",
      "province": "Nghệ An",
      "oldLat": 21.2178539,
      "oldLng": 105.7926676,
      "newLat": 18.8,
      "newLng": 105.7,
      "osmDisplayName": "Đền Cuông",
      "confidence": 0.3,
      "errorKm": 269.03
    },
    {
      "name": "Bãi biển Cửa Lò",
      "province": "Nghệ An",
      "oldLat": 18.79,
      "oldLng": 105.72,
      "newLat": 18.8,
      "newLng": 105.716667,
      "osmDisplayName": "Bãi biển Cửa Lò",
      "confidence": 0.9,
      "errorKm": 1.17
    },
    {
      "name": "Quần thể danh thắng Tràng An",
      "province": "Ninh Bình",
      "oldLat": 20.22,
      "oldLng": 105.9,
      "newLat": 20.25,
      "newLng": 105.916667,
      "osmDisplayName": "Quần thể danh thắng Tràng An",
      "confidence": 0.9,
      "errorKm": 3.76
    },
    {
      "name": "Chùa Bái Đính",
      "province": "Ninh Bình",
      "oldLat": 20.2728394,
      "oldLng": 105.8640252,
      "newLat": 22.6725,
      "newLng": 106.25,
      "osmDisplayName": "Chùa Bái Đính",
      "confidence": 0.3,
      "errorKm": 269.8
    },
    {
      "name": "Tháp Po Klong Garai",
      "province": "Ninh Thuận",
      "oldLat": 11.6018674,
      "oldLng": 108.9464202,
      "newLat": 11.583333,
      "newLng": 108.983333,
      "osmDisplayName": "Tháp Po Klong Garai",
      "confidence": 0.9,
      "errorKm": 4.52
    },
    {
      "name": "Vườn quốc gia Núi Chúa",
      "province": "Ninh Thuận",
      "oldLat": 11.7015884,
      "oldLng": 109.1317691,
      "newLat": 11.708333,
      "newLng": 109.183333,
      "osmDisplayName": "Vườn quốc gia Núi Chúa",
      "confidence": 0.9,
      "errorKm": 5.66
    },
    {
      "name": "Làng gốm Bàu Trúc",
      "province": "Ninh Thuận",
      "oldLat": 11.55,
      "oldLng": 108.98,
      "newLat": 11.566667,
      "newLng": 108.983333,
      "osmDisplayName": "Làng gốm Bàu Trúc",
      "confidence": 0.9,
      "errorKm": 1.89
    },
    {
      "name": "Đền Hùng",
      "province": "Phú Thọ",
      "oldLat": 21.3656541,
      "oldLng": 105.3471695,
      "newLat": 21.373333,
      "newLng": 105.208889,
      "osmDisplayName": "Đền Hùng",
      "confidence": 0.6,
      "errorKm": 14.34
    },
    {
      "name": "Đền Mẫu Âu Cơ",
      "province": "Phú Thọ",
      "oldLat": 21.4217,
      "oldLng": 105.1833,
      "newLat": 21.383333,
      "newLng": 105.216667,
      "osmDisplayName": "Đền Mẫu Âu Cơ",
      "confidence": 0.9,
      "errorKm": 5.49
    },
    {
      "name": "Bảo tàng Hùng Vương",
      "province": "Phú Thọ",
      "oldLat": 21.3164568,
      "oldLng": 105.3961531,
      "newLat": 21.316667,
      "newLng": 105.283333,
      "osmDisplayName": "Bảo tàng Hùng Vương",
      "confidence": 0.6,
      "errorKm": 11.69
    },
    {
      "name": "Làng cổ Hùng Lô",
      "province": "Phú Thọ",
      "oldLat": 21.9012483,
      "oldLng": 106.7409345,
      "newLat": 11.566667,
      "newLng": 108.983333,
      "osmDisplayName": "Làng cổ Hùng Lô",
      "confidence": 0.3,
      "errorKm": 1173.62
    },
    {
      "name": "Gành Đá Đĩa",
      "province": "Phú Yên",
      "oldLat": 13.3541878,
      "oldLng": 109.2938159,
      "newLat": 13,
      "newLng": 109.333333,
      "osmDisplayName": "Gành Đá Đĩa",
      "confidence": 0.6,
      "errorKm": 39.62
    },
    {
      "name": "Vịnh Xuân Đài",
      "province": "Phú Yên",
      "oldLat": 13.4243602,
      "oldLng": 109.2464236,
      "newLat": 13.5,
      "newLng": 109.25,
      "osmDisplayName": "Vịnh Xuân Đài",
      "confidence": 0.9,
      "errorKm": 8.42
    },
    {
      "name": "Bảo tàng Phú Yên",
      "province": "Phú Yên",
      "oldLat": 21.7192347,
      "oldLng": 104.9144331,
      "newLat": 21.316667,
      "newLng": 105.283333,
      "osmDisplayName": "Bảo tàng Phú Yên",
      "confidence": 0.6,
      "errorKm": 58.82
    },
    {
      "name": "Hang Sơn Đoòng",
      "province": "Quảng Bình",
      "oldLat": 17.456944,
      "oldLng": 106.2875,
      "newLat": 17.533333,
      "newLng": 106.216667,
      "osmDisplayName": "Hang Sơn Đoòng",
      "confidence": 0.6,
      "errorKm": 11.34
    },
    {
      "name": "Vườn quốc gia Phong Nha - Kẻ Bàng",
      "province": "Quảng Bình",
      "oldLat": 17.5552645,
      "oldLng": 106.1123041,
      "newLat": 11.708333,
      "newLng": 109.183333,
      "osmDisplayName": "Vườn quốc gia Phong Nha - Kẻ Bàng",
      "confidence": 0.3,
      "errorKm": 729.21
    },
    {
      "name": "Bãi biển Nhật Lệ",
      "province": "Quảng Bình",
      "oldLat": 17.491054,
      "oldLng": 106.627149,
      "newLat": 17.466667,
      "newLng": 106.616667,
      "osmDisplayName": "Bãi biển Nhật Lệ",
      "confidence": 0.9,
      "errorKm": 2.93
    },
    {
      "name": "Phố cổ Hội An",
      "province": "Quảng Nam",
      "oldLat": 15.8771291,
      "oldLng": 108.3286631,
      "newLat": 15.883333,
      "newLng": 108.333333,
      "osmDisplayName": "Phố cổ Hội An",
      "confidence": 0.9,
      "errorKm": 0.85
    },
    {
      "name": "Thánh địa Mỹ Sơn",
      "province": "Quảng Nam",
      "oldLat": 15.7655202,
      "oldLng": 108.1234531,
      "newLat": 15.766667,
      "newLng": 108.116667,
      "osmDisplayName": "Thánh địa Mỹ Sơn",
      "confidence": 0.9,
      "errorKm": 0.74
    },
    {
      "name": "Chùa Cầu",
      "province": "Quảng Nam",
      "oldLat": 15.8771159,
      "oldLng": 108.326013,
      "newLat": 15.883333,
      "newLng": 108.333333,
      "osmDisplayName": "Chùa Cầu",
      "confidence": 0.9,
      "errorKm": 1.04
    },
    {
      "name": "Làng gốm Thanh Hà",
      "province": "Quảng Nam",
      "oldLat": 15.8667,
      "oldLng": 108.35,
      "newLat": 11.566667,
      "newLng": 108.983333,
      "osmDisplayName": "Làng gốm Thanh Hà",
      "confidence": 0.3,
      "errorKm": 483.01
    },
    {
      "name": "Chùa Thiên Ấn",
      "province": "Quảng Ngãi",
      "oldLat": 15.148929,
      "oldLng": 108.8187085,
      "newLat": 15.883333,
      "newLng": 108.333333,
      "osmDisplayName": "Chùa Thiên Ấn",
      "confidence": 0.6,
      "errorKm": 96.81
    },
    {
      "name": "Bãi biển Mỹ Khê",
      "province": "Quảng Ngãi",
      "oldLat": 15.1906337,
      "oldLng": 108.8952905,
      "newLat": 17.466667,
      "newLng": 106.616667,
      "osmDisplayName": "Bãi biển Mỹ Khê",
      "confidence": 0.3,
      "errorKm": 350.95
    },
    {
      "name": "Làng cá Lý Sơn",
      "province": "Quảng Ngãi",
      "oldLat": 21.1354408,
      "oldLng": 106.0059942,
      "newLat": 11.566667,
      "newLng": 108.983333,
      "osmDisplayName": "Làng cá Lý Sơn",
      "confidence": 0.3,
      "errorKm": 1110.28
    },
    {
      "name": "Vịnh Hạ Long",
      "province": "Quảng Ninh",
      "oldLat": 20.9084384,
      "oldLng": 107.0682782,
      "newLat": 13.5,
      "newLng": 109.25,
      "osmDisplayName": "Vịnh Hạ Long",
      "confidence": 0.3,
      "errorKm": 855.7
    },
    {
      "name": "Chùa Yên Tử",
      "province": "Quảng Ninh",
      "oldLat": 21.0418817,
      "oldLng": 106.7118637,
      "newLat": 15.883333,
      "newLng": 108.333333,
      "osmDisplayName": "Chùa Yên Tử",
      "confidence": 0.3,
      "errorKm": 598.53
    },
    {
      "name": "Bảo tàng Quảng Ninh",
      "province": "Quảng Ninh",
      "oldLat": 20.9486771,
      "oldLng": 107.0975562,
      "newLat": 21.316667,
      "newLng": 105.283333,
      "osmDisplayName": "Bảo tàng Quảng Ninh",
      "confidence": 0.3,
      "errorKm": 192.56
    },
    {
      "name": "Làng chài Cửa Vạn",
      "province": "Quảng Ninh",
      "oldLat": 20.9167,
      "oldLng": 107.1333,
      "newLat": 20.933333,
      "newLng": 107.083333,
      "osmDisplayName": "Làng chài Cửa Vạn",
      "confidence": 0.9,
      "errorKm": 5.51
    },
    {
      "name": "Thành cổ Quảng Trị",
      "province": "Quảng Trị",
      "oldLat": 16.7539122,
      "oldLng": 107.1895187,
      "newLat": 16.75,
      "newLng": 107.2,
      "osmDisplayName": "Thành cổ Quảng Trị",
      "confidence": 0.9,
      "errorKm": 1.2
    },
    {
      "name": "Địa đạo Vịnh Mốc",
      "province": "Quảng Trị",
      "oldLat": 17.1,
      "oldLng": 107.0833,
      "newLat": 17.116667,
      "newLng": 107.1,
      "osmDisplayName": "Địa đạo Vịnh Mốc",
      "confidence": 0.9,
      "errorKm": 2.57
    },
    {
      "name": "Nghĩa trang liệt sĩ Trường Sơn",
      "province": "Quảng Trị",
      "oldLat": 16.9833,
      "oldLng": 106.9833,
      "newLat": 16.5,
      "newLng": 106.8,
      "osmDisplayName": "Nghĩa trang liệt sĩ Trường Sơn",
      "confidence": 0.6,
      "errorKm": 57.18
    },
    {
      "name": "Bà Nà Hills",
      "province": "Đà Nẵng",
      "oldLat": 16.0214287,
      "oldLng": 108.0540633,
      "newLat": 15.995,
      "newLng": 107.99,
      "osmDisplayName": "Bà Nà Hills",
      "confidence": 0.9,
      "errorKm": 7.45
    },
    {
      "name": "Chùa Linh Ứng",
      "province": "Đà Nẵng",
      "oldLat": 16.1001567,
      "oldLng": 108.2784112,
      "newLat": 16.1,
      "newLng": 108.25,
      "osmDisplayName": "Chùa Linh Ứng",
      "confidence": 0.9,
      "errorKm": 3.04
    },
    {
      "name": "Bảo tàng Chăm",
      "province": "Đà Nẵng",
      "oldLat": 16.0601209,
      "oldLng": 108.223084,
      "newLat": 16.066667,
      "newLng": 108.216667,
      "osmDisplayName": "Bảo tàng Chăm",
      "confidence": 0.9,
      "errorKm": 1
    },
    {
      "name": "Ngũ Hành Sơn",
      "province": "Đà Nẵng",
      "oldLat": 16.00402,
      "oldLng": 108.2627745,
      "newLat": 16,
      "newLng": 108.266667,
      "osmDisplayName": "Ngũ Hành Sơn",
      "confidence": 0.9,
      "errorKm": 0.61
    },
    {
      "name": "Buôn Đôn",
      "province": "Đắk Lắk",
      "oldLat": 12.8785691,
      "oldLng": 107.7120405,
      "newLat": 12.883333,
      "newLng": 107.983333,
      "osmDisplayName": "Buôn Đôn",
      "confidence": 0.6,
      "errorKm": 29.41
    },
    {
      "name": "Hồ Lắk",
      "province": "Đắk Lắk",
      "oldLat": 12.4232112,
      "oldLng": 108.1776243,
      "newLat": 12.416667,
      "newLng": 108.183333,
      "osmDisplayName": "Hồ Lắk",
      "confidence": 0.9,
      "errorKm": 0.96
    },
    {
      "name": "Bảo tàng Đắk Lắk",
      "province": "Đắk Lắk",
      "oldLat": 12.6760373,
      "oldLng": 108.0421189,
      "newLat": 16.066667,
      "newLng": 108.216667,
      "osmDisplayName": "Bảo tàng Đắk Lắk",
      "confidence": 0.3,
      "errorKm": 377.49
    },
    {
      "name": "Thác Dray Nur",
      "province": "Đắk Lắk",
      "oldLat": 12.5405291,
      "oldLng": 107.8904044,
      "newLat": 12.5,
      "newLng": 107.9,
      "osmDisplayName": "Thác Dray Nur",
      "confidence": 0.9,
      "errorKm": 4.63
    },
    {
      "name": "Vườn quốc gia Tà Đùng",
      "province": "Đắk Nông",
      "oldLat": 11.8888531,
      "oldLng": 108.0362243,
      "newLat": 11.85,
      "newLng": 107.95,
      "osmDisplayName": "Vườn quốc gia Tà Đùng",
      "confidence": 0.6,
      "errorKm": 10.33
    },
    {
      "name": "Thác Dray Sáp",
      "province": "Đắk Nông",
      "oldLat": 12.5378544,
      "oldLng": 107.8901678,
      "newLat": 12.5,
      "newLng": 107.9,
      "osmDisplayName": "Thác Dray Sáp",
      "confidence": 0.9,
      "errorKm": 4.34
    },
    {
      "name": "Hang động núi lửa Krông Nô",
      "province": "Đắk Nông",
      "oldLat": 12.35,
      "oldLng": 107.85,
      "newLat": 12.5,
      "newLng": 107.8,
      "osmDisplayName": "Hang động núi lửa Krông Nô",
      "confidence": 0.6,
      "errorKm": 17.54
    },
    {
      "name": "Chùa Phật Học",
      "province": "Đắk Nông",
      "oldLat": 10.03305,
      "oldLng": 105.7842464,
      "newLat": 16.1,
      "newLng": 108.25,
      "osmDisplayName": "Chùa Phật Học",
      "confidence": 0.3,
      "errorKm": 725.51
    },
    {
      "name": "Điện Biên Phủ",
      "province": "Điện Biên",
      "oldLat": 21.4904376,
      "oldLng": 103.1046352,
      "newLat": 21.383333,
      "newLng": 103.016667,
      "osmDisplayName": "Điện Biên Phủ",
      "confidence": 0.6,
      "errorKm": 14.99
    },
    {
      "name": "Bảo tàng Chiến thắng Điện Biên Phủ",
      "province": "Điện Biên",
      "oldLat": 21.380741,
      "oldLng": 103.015194,
      "newLat": 16.066667,
      "newLng": 108.216667,
      "osmDisplayName": "Bảo tàng Chiến thắng Điện Biên Phủ",
      "confidence": 0.3,
      "errorKm": 805.54
    },
    {
      "name": "Thành Bản Phủ",
      "province": "Điện Biên",
      "oldLat": 10.7701479,
      "oldLng": 106.6763465,
      "newLat": 16.75,
      "newLng": 107.2,
      "osmDisplayName": "Thành Bản Phủ",
      "confidence": 0.3,
      "errorKm": 667.33
    },
    {
      "name": "Hồ Pá Khoang",
      "province": "Điện Biên",
      "oldLat": 21.4425041,
      "oldLng": 103.0908909,
      "newLat": 21.35,
      "newLng": 103.05,
      "osmDisplayName": "Hồ Pá Khoang",
      "confidence": 0.6,
      "errorKm": 11.12
    },
    {
      "name": "Vườn quốc gia Cát Tiên",
      "province": "Đồng Nai",
      "oldLat": 11.4547262,
      "oldLng": 107.3197806,
      "newLat": 11.85,
      "newLng": 107.95,
      "osmDisplayName": "Vườn quốc gia Cát Tiên",
      "confidence": 0.6,
      "errorKm": 81.5
    },
    {
      "name": "Khu di tích lịch sử Chiến khu D",
      "province": "Đồng Nai",
      "oldLat": 11.15,
      "oldLng": 107.05,
      "newLat": 11,
      "newLng": 107,
      "osmDisplayName": "Khu di tích lịch sử Chiến khu D",
      "confidence": 0.6,
      "errorKm": 17.55
    },
    {
      "name": "Chùa Bửu Phong",
      "province": "Đồng Nai",
      "oldLat": 10.9674223,
      "oldLng": 106.8000564,
      "newLat": 16.1,
      "newLng": 108.25,
      "osmDisplayName": "Chùa Bửu Phong",
      "confidence": 0.3,
      "errorKm": 591.83
    },
    {
      "name": "Làng gốm Bình Dương (khu vực Biên Hòa)",
      "province": "Đồng Nai",
      "oldLat": 10.95,
      "oldLng": 106.8,
      "newLat": 10.95,
      "newLng": 106.816667,
      "osmDisplayName": "Làng gốm Bình Dương (khu vực Biên Hòa)",
      "confidence": 0.9,
      "errorKm": 1.82
    },
    {
      "name": "Khu di tích Gò Tháp",
      "province": "Đồng Tháp",
      "oldLat": 10.6039837,
      "oldLng": 105.8281274,
      "newLat": 10.583333,
      "newLng": 105.783333,
      "osmDisplayName": "Khu di tích Gò Tháp",
      "confidence": 0.9,
      "errorKm": 5.41
    },
    {
      "name": "Vườn quốc gia Tràm Chim",
      "province": "Đồng Tháp",
      "oldLat": 10.7298927,
      "oldLng": 105.5001075,
      "newLat": 10.65,
      "newLng": 105.483333,
      "osmDisplayName": "Vườn quốc gia Tràm Chim",
      "confidence": 0.9,
      "errorKm": 9.07
    },
    {
      "name": "Chùa Phước Kiển",
      "province": "Đồng Tháp",
      "oldLat": 10.6182969,
      "oldLng": 106.6014595,
      "newLat": 10.3,
      "newLng": 105.766667,
      "osmDisplayName": "Chùa Phước Kiển",
      "confidence": 0.6,
      "errorKm": 97.9
    },
    {
      "name": "Làng hoa Sa Đéc",
      "province": "Đồng Tháp",
      "oldLat": 10.2819419,
      "oldLng": 105.7821627,
      "newLat": 10.95,
      "newLng": 106.816667,
      "osmDisplayName": "Làng hoa Sa Đéc",
      "confidence": 0.3,
      "errorKm": 135.28
    },
    {
      "name": "Biển Hồ (Hồ T'Nưng)",
      "province": "Gia Lai",
      "oldLat": 13.95,
      "oldLng": 108,
      "newLat": 13.983333,
      "newLng": 108,
      "osmDisplayName": "Biển Hồ (Hồ T'Nưng)",
      "confidence": 0.9,
      "errorKm": 3.71
    },
    {
      "name": "Nhà thờ gỗ Pleiku",
      "province": "Gia Lai",
      "oldLat": 13.97,
      "oldLng": 108,
      "newLat": 13.983333,
      "newLng": 108,
      "osmDisplayName": "Nhà thờ gỗ Pleiku",
      "confidence": 0.9,
      "errorKm": 1.48
    },
    {
      "name": "Khu di tích lịch sử Chiến thắng Đăk Pơ",
      "province": "Gia Lai",
      "oldLat": 14.1,
      "oldLng": 108.3,
      "newLat": 10.583333,
      "newLng": 105.783333,
      "osmDisplayName": "Khu di tích lịch sử Chiến thắng Đăk Pơ",
      "confidence": 0.3,
      "errorKm": 477.09
    },
    {
      "name": "Làng cổ Kon Jơ Dreh",
      "province": "Gia Lai",
      "oldLat": 13.8,
      "oldLng": 108.2,
      "newLat": 10.95,
      "newLng": 106.816667,
      "osmDisplayName": "Làng cổ Kon Jơ Dreh",
      "confidence": 0.3,
      "errorKm": 350.71
    },
    {
      "name": "Cao nguyên đá Đồng Văn",
      "province": "Hà Giang",
      "oldLat": 11.964995,
      "oldLng": 108.4459678,
      "newLat": 23.283333,
      "newLng": 105.366667,
      "osmDisplayName": "Cao nguyên đá Đồng Văn",
      "confidence": 0.3,
      "errorKm": 1299.99
    },
    {
      "name": "Dinh thự họ Vương",
      "province": "Hà Giang",
      "oldLat": 23.2562484,
      "oldLng": 105.2620885,
      "newLat": 23.283333,
      "newLng": 105.366667,
      "osmDisplayName": "Dinh thự họ Vương",
      "confidence": 0.6,
      "errorKm": 11.1
    },
    {
      "name": "Chợ tình Khâu Vai",
      "province": "Hà Giang",
      "oldLat": 22.9,
      "oldLng": 105.1,
      "newLat": 22.833333,
      "newLng": 105,
      "osmDisplayName": "Chợ tình Khâu Vai",
      "confidence": 0.6,
      "errorKm": 12.65
    },
    {
      "name": "Nhà thờ cổ Sà Phìn",
      "province": "Hà Giang",
      "oldLat": 23.15,
      "oldLng": 105.25,
      "newLat": 13.983333,
      "newLng": 108,
      "osmDisplayName": "Nhà thờ cổ Sà Phìn",
      "confidence": 0.3,
      "errorKm": 1059.59
    },
    {
      "name": "Chùa Bà Đanh",
      "province": "Hà Nam",
      "oldLat": 21.042714,
      "oldLng": 105.8201731,
      "newLat": 10.3,
      "newLng": 105.766667,
      "osmDisplayName": "Chùa Bà Đanh",
      "confidence": 0.3,
      "errorKm": 1194.55
    },
    {
      "name": "Đền Trần Thương",
      "province": "Hà Nam",
      "oldLat": 20.5761085,
      "oldLng": 106.1061065,
      "newLat": 20.55,
      "newLng": 105.916667,
      "osmDisplayName": "Đền Trần Thương",
      "confidence": 0.6,
      "errorKm": 19.94
    },
    {
      "name": "Khu di tích Cố đô Hoa Lư (phần Hà Nam)",
      "province": "Hà Nam",
      "oldLat": 20.51,
      "oldLng": 105.89,
      "newLat": 10.583333,
      "newLng": 105.783333,
      "osmDisplayName": "Khu di tích Cố đô Hoa Lư (phần Hà Nam)",
      "confidence": 0.3,
      "errorKm": 1103.85
    },
    {
      "name": "Chùa Địa Tạng Phi Lai",
      "province": "Hà Nam",
      "oldLat": 20.4987,
      "oldLng": 105.9456,
      "newLat": 10.3,
      "newLng": 105.766667,
      "osmDisplayName": "Chùa Địa Tạng Phi Lai",
      "confidence": 0.3,
      "errorKm": 1134.21
    },
    {
      "name": "Hoàng thành Thăng Long",
      "province": "Hà Nội",
      "oldLat": 21.0383903,
      "oldLng": 105.8406237,
      "newLat": 21.033333,
      "newLng": 105.85,
      "osmDisplayName": "Hoàng thành Thăng Long",
      "confidence": 0.9,
      "errorKm": 1.12
    },
    {
      "name": "Chùa Một Cột",
      "province": "Hà Nội",
      "oldLat": 21.0358555,
      "oldLng": 105.8336143,
      "newLat": 10.3,
      "newLng": 105.766667,
      "osmDisplayName": "Chùa Một Cột",
      "confidence": 0.3,
      "errorKm": 1193.79
    },
    {
      "name": "Làng gốm Bát Tràng",
      "province": "Hà Nội",
      "oldLat": 20.9730809,
      "oldLng": 105.916267,
      "newLat": 10.95,
      "newLng": 106.816667,
      "osmDisplayName": "Làng gốm Bát Tràng",
      "confidence": 0.3,
      "errorKm": 1118.65
    },
    {
      "name": "Khu di tích Nguyễn Du",
      "province": "Hà Tĩnh",
      "oldLat": 18.5,
      "oldLng": 105.65,
      "newLat": 10.583333,
      "newLng": 105.783333,
      "osmDisplayName": "Khu di tích Nguyễn Du",
      "confidence": 0.3,
      "errorKm": 880.41
    },
    {
      "name": "Chùa Hương Tích",
      "province": "Hà Tĩnh",
      "oldLat": 18.5342785,
      "oldLng": 105.7890804,
      "newLat": 10.3,
      "newLng": 105.766667,
      "osmDisplayName": "Chùa Hương Tích",
      "confidence": 0.3,
      "errorKm": 915.61
    },
    {
      "name": "Thành cổ Hà Tĩnh",
      "province": "Hà Tĩnh",
      "oldLat": 18.4478453,
      "oldLng": 105.7784758,
      "newLat": 18.3428,
      "newLng": 105.9054,
      "osmDisplayName": "Thành cổ Hà Tĩnh",
      "confidence": 0.6,
      "errorKm": 17.77
    },
    {
      "name": "Biển Thiên Cầm",
      "province": "Hà Tĩnh",
      "oldLat": 18.2679732,
      "oldLng": 106.1025304,
      "newLat": 18.2833,
      "newLng": 106.0167,
      "osmDisplayName": "Biển Thiên Cầm",
      "confidence": 0.9,
      "errorKm": 9.22
    },
    {
      "name": "Đền Kiếp Bạc",
      "province": "Hải Dương",
      "oldLat": 21.1510532,
      "oldLng": 106.3275892,
      "newLat": 21.1333,
      "newLng": 106.3667,
      "osmDisplayName": "Đền Kiếp Bạc",
      "confidence": 0.9,
      "errorKm": 4.51
    },
    {
      "name": "Chùa Côn Sơn",
      "province": "Hải Dương",
      "oldLat": 21.1505896,
      "oldLng": 106.3820302,
      "newLat": 21.15,
      "newLng": 106.35,
      "osmDisplayName": "Chùa Côn Sơn",
      "confidence": 0.9,
      "errorKm": 3.32
    },
    {
      "name": "Khu di tích Côn Sơn - Kiếp Bạc",
      "province": "Hải Dương",
      "oldLat": 21.1509953,
      "oldLng": 106.3816559,
      "newLat": 21.1417,
      "newLng": 106.3583,
      "osmDisplayName": "Khu di tích Côn Sơn - Kiếp Bạc",
      "confidence": 0.9,
      "errorKm": 2.63
    },
    {
      "name": "Làng gốm Chu Đậu",
      "province": "Hải Dương",
      "oldLat": 20.95,
      "oldLng": 106.4,
      "newLat": 21.0167,
      "newLng": 106.3833,
      "osmDisplayName": "Làng gốm Chu Đậu",
      "confidence": 0.9,
      "errorKm": 7.62
    },
    {
      "name": "Đền thờ Chu Văn An",
      "province": "Hải Dương",
      "oldLat": 20.9602884,
      "oldLng": 106.3604393,
      "newLat": 21.15,
      "newLng": 106.35,
      "osmDisplayName": "Đền thờ Chu Văn An",
      "confidence": 0.6,
      "errorKm": 21.12
    },
    {
      "name": "Đền Nghè",
      "province": "Hải Phòng",
      "oldLat": 20.8546033,
      "oldLng": 106.6802932,
      "newLat": 20.85,
      "newLng": 106.6833,
      "osmDisplayName": "Đền Nghè",
      "confidence": 0.9,
      "errorKm": 0.6
    },
    {
      "name": "Đồ Sơn",
      "province": "Hải Phòng",
      "oldLat": 20.716478,
      "oldLng": 106.7824805,
      "newLat": 20.7167,
      "newLng": 106.8,
      "osmDisplayName": "Đồ Sơn",
      "confidence": 0.9,
      "errorKm": 1.82
    },
    {
      "name": "Chùa Dư Hàng",
      "province": "Hải Phòng",
      "oldLat": 20.8438212,
      "oldLng": 106.6759588,
      "newLat": 21.15,
      "newLng": 106.35,
      "osmDisplayName": "Chùa Dư Hàng",
      "confidence": 0.6,
      "errorKm": 48
    },
    {
      "name": "Khu di tích Chiến thắng Chương Thiện",
      "province": "Hậu Giang",
      "oldLat": 9.7833,
      "oldLng": 105.4667,
      "newLat": 21.1417,
      "newLng": 106.3583,
      "osmDisplayName": "Khu di tích Chiến thắng Chương Thiện",
      "confidence": 0.3,
      "errorKm": 1266.59
    },
    {
      "name": "Chùa Ông (Hậu Giang)",
      "province": "Hậu Giang",
      "oldLat": 9.9244,
      "oldLng": 105.65,
      "newLat": 21.15,
      "newLng": 106.35,
      "osmDisplayName": "Chùa Ông (Hậu Giang)",
      "confidence": 0.3,
      "errorKm": 1250.47
    },
    {
      "name": "Khu bảo tồn sinh thái Lung Ngọc Hoàng",
      "province": "Hậu Giang",
      "oldLat": 9.7,
      "oldLng": 105.55,
      "newLat": 9.7,
      "newLng": 105.5,
      "osmDisplayName": "Khu bảo tồn sinh thái Lung Ngọc Hoàng",
      "confidence": 0.9,
      "errorKm": 5.48
    },
    {
      "name": "Đền thờ Bác Hồ (Hậu Giang)",
      "province": "Hậu Giang",
      "oldLat": 9.9167,
      "oldLng": 105.65,
      "newLat": 21.15,
      "newLng": 106.35,
      "osmDisplayName": "Đền thờ Bác Hồ (Hậu Giang)",
      "confidence": 0.3,
      "errorKm": 1251.33
    },
    {
      "name": "Khu di tích lịch sử văn hóa Mường Bi",
      "province": "Hòa Bình",
      "oldLat": 20.5,
      "oldLng": 105.2,
      "newLat": 21.1417,
      "newLng": 106.3583,
      "osmDisplayName": "Khu di tích lịch sử văn hóa Mường Bi",
      "confidence": 0.3,
      "errorKm": 139.94
    },
    {
      "name": "Hồ Hòa Bình",
      "province": "Hòa Bình",
      "oldLat": 10.773806,
      "oldLng": 106.6471276,
      "newLat": 20.8,
      "newLng": 105.3333,
      "osmDisplayName": "Hồ Hòa Bình",
      "confidence": 0.3,
      "errorKm": 1123.66
    },
    {
      "name": "Bản Lác",
      "province": "Hòa Bình",
      "oldLat": 20.6537082,
      "oldLng": 105.0722738,
      "newLat": 20.5,
      "newLng": 105.2,
      "osmDisplayName": "Bản Lác",
      "confidence": 0.6,
      "errorKm": 21.65
    },
    {
      "name": "Đền Thác Bờ",
      "province": "Hòa Bình",
      "oldLat": 21.5377848,
      "oldLng": 105.4834096,
      "newLat": 21.15,
      "newLng": 106.35,
      "osmDisplayName": "Đền Thác Bờ",
      "confidence": 0.6,
      "errorKm": 99.57
    },
    {
      "name": "Phố Hiến",
      "province": "Hưng Yên",
      "oldLat": 20.6625669,
      "oldLng": 106.0584835,
      "newLat": 20.65,
      "newLng": 106.0667,
      "osmDisplayName": "Phố Hiến",
      "confidence": 0.9,
      "errorKm": 1.64
    },
    {
      "name": "Đền Mẫu (Hưng Yên)",
      "province": "Hưng Yên",
      "oldLat": 21.4424674,
      "oldLng": 105.8614931,
      "newLat": 20.65,
      "newLng": 106.0667,
      "osmDisplayName": "Đền Mẫu (Hưng Yên)",
      "confidence": 0.6,
      "errorKm": 90.66
    },
    {
      "name": "Chùa Chuông",
      "province": "Hưng Yên",
      "oldLat": 20.6557859,
      "oldLng": 106.0504457,
      "newLat": 21.15,
      "newLng": 106.35,
      "osmDisplayName": "Chùa Chuông",
      "confidence": 0.6,
      "errorKm": 63.15
    },
    {
      "name": "Văn miếu Xích Đằng",
      "province": "Hưng Yên",
      "oldLat": 20.6622597,
      "oldLng": 106.0492897,
      "newLat": 20.65,
      "newLng": 106.0667,
      "osmDisplayName": "Văn miếu Xích Đằng",
      "confidence": 0.9,
      "errorKm": 2.27
    },
    {
      "name": "Tháp Bà Ponagar",
      "province": "Khánh Hòa",
      "oldLat": 12.2653,
      "oldLng": 109.1956,
      "newLat": 12.2667,
      "newLng": 109.2,
      "osmDisplayName": "Tháp Bà Ponagar",
      "confidence": 0.9,
      "errorKm": 0.5
    },
    {
      "name": "Hòn Chồng",
      "province": "Khánh Hòa",
      "oldLat": 12.2728399,
      "oldLng": 109.2065606,
      "newLat": 12.25,
      "newLng": 109.2,
      "osmDisplayName": "Hòn Chồng",
      "confidence": 0.9,
      "errorKm": 2.64
    },
    {
      "name": "Viện Hải dương học Nha Trang",
      "province": "Khánh Hòa",
      "oldLat": 12.2079619,
      "oldLng": 109.2139401,
      "newLat": 12.21,
      "newLng": 109.195,
      "osmDisplayName": "Viện Hải dương học Nha Trang",
      "confidence": 0.9,
      "errorKm": 2.07
    },
    {
      "name": "Di tích lịch sử Hòn Đất",
      "province": "Kiên Giang",
      "oldLat": 10.2167,
      "oldLng": 104.9333,
      "newLat": 10.2,
      "newLng": 104.933,
      "osmDisplayName": "Di tích lịch sử Hòn Đất",
      "confidence": 0.9,
      "errorKm": 1.86
    },
    {
      "name": "Chùa Hang (Hà Tiên)",
      "province": "Kiên Giang",
      "oldLat": 20.7118766,
      "oldLng": 105.9298799,
      "newLat": 12.251,
      "newLng": 109.183,
      "osmDisplayName": "Chùa Hang (Hà Tiên)",
      "confidence": 0.3,
      "errorKm": 1002.57
    },
    {
      "name": "Bảo tàng Kiên Giang",
      "province": "Kiên Giang",
      "oldLat": 10.1928671,
      "oldLng": 103.9673306,
      "newLat": 10.017,
      "newLng": 105.083,
      "osmDisplayName": "Bảo tàng Kiên Giang",
      "confidence": 0.3,
      "errorKm": 123.69
    },
    {
      "name": "Nhà thờ gỗ Kon Tum",
      "province": "Kon Tum",
      "oldLat": 14.6995372,
      "oldLng": 107.9323831,
      "newLat": 14.383,
      "newLng": 108,
      "osmDisplayName": "Nhà thờ gỗ Kon Tum",
      "confidence": 0.6,
      "errorKm": 35.94
    },
    {
      "name": "Tòa Giám mục Kon Tum",
      "province": "Kon Tum",
      "oldLat": 14.35111,
      "oldLng": 108.01058,
      "newLat": 14.383,
      "newLng": 108,
      "osmDisplayName": "Tòa Giám mục Kon Tum",
      "confidence": 0.9,
      "errorKm": 3.72
    },
    {
      "name": "Làng Kon Klor",
      "province": "Kon Tum",
      "oldLat": 14.3440764,
      "oldLng": 108.0349318,
      "newLat": 14.383,
      "newLng": 108,
      "osmDisplayName": "Làng Kon Klor",
      "confidence": 0.9,
      "errorKm": 5.74
    },
    {
      "name": "Khu di tích lịch sử Ngục Kon Tum",
      "province": "Kon Tum",
      "oldLat": 14.35,
      "oldLng": 108,
      "newLat": 10.2,
      "newLng": 104.933,
      "osmDisplayName": "Khu di tích lịch sử Ngục Kon Tum",
      "confidence": 0.3,
      "errorKm": 569.15
    },
    {
      "name": "Cổng trời Tây Bắc (Ô Quy Hồ)",
      "province": "Lai Châu",
      "oldLat": 22.3833,
      "oldLng": 103.7833,
      "newLat": 22.35,
      "newLng": 103.767,
      "osmDisplayName": "Cổng trời Tây Bắc (Ô Quy Hồ)",
      "confidence": 0.9,
      "errorKm": 4.06
    },
    {
      "name": "Chợ phiên Tam Đường",
      "province": "Lai Châu",
      "oldLat": 22.35,
      "oldLng": 103.6167,
      "newLat": 22.333,
      "newLng": 103.633,
      "osmDisplayName": "Chợ phiên Tam Đường",
      "confidence": 0.9,
      "errorKm": 2.53
    },
    {
      "name": "Thác Tác Tình",
      "province": "Lai Châu",
      "oldLat": 22.3476248,
      "oldLng": 103.6134553,
      "newLat": 22.4,
      "newLng": 103.45,
      "osmDisplayName": "Thác Tác Tình",
      "confidence": 0.6,
      "errorKm": 17.79
    },
    {
      "name": "Bảo tàng tỉnh Lai Châu",
      "province": "Lai Châu",
      "oldLat": 22.391559,
      "oldLng": 103.4716174,
      "newLat": 10.017,
      "newLng": 105.083,
      "osmDisplayName": "Bảo tàng tỉnh Lai Châu",
      "confidence": 0.3,
      "errorKm": 1386.65
    },
    {
      "name": "Thung lũng Tình Yêu",
      "province": "Lâm Đồng",
      "oldLat": 11.9781853,
      "oldLng": 108.4499229,
      "newLat": 11.933,
      "newLng": 108.433,
      "osmDisplayName": "Thung lũng Tình Yêu",
      "confidence": 0.9,
      "errorKm": 5.35
    },
    {
      "name": "Nhà thờ Domaine de Marie",
      "province": "Lâm Đồng",
      "oldLat": 11.9496625,
      "oldLng": 108.430137,
      "newLat": 14.383,
      "newLng": 108,
      "osmDisplayName": "Nhà thờ Domaine de Marie",
      "confidence": 0.3,
      "errorKm": 274.55
    },
    {
      "name": "Khu du lịch hồ Tuyền Lâm",
      "province": "Lâm Đồng",
      "oldLat": 11.9,
      "oldLng": 108.45,
      "newLat": 14.383,
      "newLng": 108,
      "osmDisplayName": "Khu du lịch hồ Tuyền Lâm",
      "confidence": 0.3,
      "errorKm": 280.36
    },
    {
      "name": "Đồi chè Cầu Đất",
      "province": "Lâm Đồng",
      "oldLat": 11.8777526,
      "oldLng": 108.5603366,
      "newLat": 11.933,
      "newLng": 108.45,
      "osmDisplayName": "Đồi chè Cầu Đất",
      "confidence": 0.6,
      "errorKm": 13.49
    },
    {
      "name": "Chùa Dơi (Chùa Mahatup)",
      "province": "Sóc Trăng",
      "oldLat": 9.5789679,
      "oldLng": 105.9724396,
      "newLat": 12.251,
      "newLng": 109.183,
      "osmDisplayName": "Chùa Dơi (Chùa Mahatup)",
      "confidence": 0.3,
      "errorKm": 459.49
    },
    {
      "name": "Chùa Chén Kiểu (Chùa Sà Lôn)",
      "province": "Sóc Trăng",
      "oldLat": 9.6167,
      "oldLng": 105.9833,
      "newLat": 12.251,
      "newLng": 109.183,
      "osmDisplayName": "Chùa Chén Kiểu (Chùa Sà Lôn)",
      "confidence": 0.3,
      "errorKm": 455.86
    },
    {
      "name": "Khu du lịch sinh thái Hồ Nước Ngọt",
      "province": "Sóc Trăng",
      "oldLat": 9.55,
      "oldLng": 105.95,
      "newLat": 14.383,
      "newLng": 108,
      "osmDisplayName": "Khu du lịch sinh thái Hồ Nước Ngọt",
      "confidence": 0.3,
      "errorKm": 581.81
    },
    {
      "name": "Bảo tàng tỉnh Sóc Trăng",
      "province": "Sóc Trăng",
      "oldLat": 9.6123895,
      "oldLng": 105.9699571,
      "newLat": 10.017,
      "newLng": 105.083,
      "osmDisplayName": "Bảo tàng tỉnh Sóc Trăng",
      "confidence": 0.3,
      "errorKm": 107.09
    },
    {
      "name": "Nhà tù Sơn La",
      "province": "Sơn La",
      "oldLat": 21.3310642,
      "oldLng": 103.9079082,
      "newLat": 14.383,
      "newLng": 108,
      "osmDisplayName": "Nhà tù Sơn La",
      "confidence": 0.3,
      "errorKm": 885.53
    },
    {
      "name": "Cao nguyên Mộc Châu",
      "province": "Sơn La",
      "oldLat": 20.8333,
      "oldLng": 104.65,
      "newLat": 20.833,
      "newLng": 104.633,
      "osmDisplayName": "Cao nguyên Mộc Châu",
      "confidence": 0.9,
      "errorKm": 1.77
    },
    {
      "name": "Thác Dải Yếm",
      "province": "Sơn La",
      "oldLat": 20.817975,
      "oldLng": 104.591686,
      "newLat": 22.4,
      "newLng": 103.45,
      "osmDisplayName": "Thác Dải Yếm",
      "confidence": 0.3,
      "errorKm": 211.84
    },
    {
      "name": "Bản Lác (Mai Châu)",
      "province": "Sơn La",
      "oldLat": 20.6537082,
      "oldLng": 105.0722738,
      "newLat": 20.661667,
      "newLng": 104.998889,
      "osmDisplayName": "Bản Lác (Mai Châu)",
      "confidence": 0.9,
      "errorKm": 7.69
    },
    {
      "name": "Tòa Thánh Tây Ninh",
      "province": "Tây Ninh",
      "oldLat": 11.3106962,
      "oldLng": 106.0295137,
      "newLat": 11.3,
      "newLng": 106.1,
      "osmDisplayName": "Tòa Thánh Tây Ninh",
      "confidence": 0.9,
      "errorKm": 7.78
    },
    {
      "name": "Hồ Dầu Tiếng",
      "province": "Tây Ninh",
      "oldLat": 11.459395,
      "oldLng": 106.3849837,
      "newLat": 11.283333,
      "newLng": 106.333333,
      "osmDisplayName": "Hồ Dầu Tiếng",
      "confidence": 0.6,
      "errorKm": 20.37
    },
    {
      "name": "Khu di tích lịch sử Căn cứ Trung ương Cục miền Nam",
      "province": "Tây Ninh",
      "oldLat": 11.45,
      "oldLng": 106.05,
      "newLat": 11.383333,
      "newLng": 106.166667,
      "osmDisplayName": "Khu di tích lịch sử Căn cứ Trung ương Cục miền Nam",
      "confidence": 0.6,
      "errorKm": 14.72
    },
    {
      "name": "Chùa Keo",
      "province": "Thái Bình",
      "oldLat": 20.3912788,
      "oldLng": 106.3018694,
      "newLat": 20.5,
      "newLng": 106.333333,
      "osmDisplayName": "Chùa Keo",
      "confidence": 0.6,
      "errorKm": 12.53
    },
    {
      "name": "Đền Trần Thái Bình",
      "province": "Thái Bình",
      "oldLat": 20.4457972,
      "oldLng": 106.3390451,
      "newLat": 20.45,
      "newLng": 106.333333,
      "osmDisplayName": "Đền Trần Thái Bình",
      "confidence": 0.9,
      "errorKm": 0.76
    },
    {
      "name": "Khu di tích lịch sử văn hóa Côn Sơn - Kiếp Bạc (phần Thái Bình)",
      "province": "Thái Bình",
      "oldLat": 20.4678,
      "oldLng": 106.3567,
      "newLat": 11.383333,
      "newLng": 106.166667,
      "osmDisplayName": "Khu di tích lịch sử văn hóa Côn Sơn - Kiếp Bạc (phần Thái Bình)",
      "confidence": 0.3,
      "errorKm": 1010.35
    },
    {
      "name": "Khu di tích lịch sử ATK Định Hóa",
      "province": "Thái Nguyên",
      "oldLat": 21.8972,
      "oldLng": 105.6333,
      "newLat": 11.383333,
      "newLng": 106.166667,
      "osmDisplayName": "Khu di tích lịch sử ATK Định Hóa",
      "confidence": 0.3,
      "errorKm": 1170.46
    },
    {
      "name": "Chùa Hang (Phượng Hoàng)",
      "province": "Thái Nguyên",
      "oldLat": 21.0250672,
      "oldLng": 106.6641228,
      "newLat": 20.5,
      "newLng": 106.333333,
      "osmDisplayName": "Chùa Hang (Phượng Hoàng)",
      "confidence": 0.6,
      "errorKm": 67.76
    },
    {
      "name": "Bảo tàng Văn hóa các dân tộc Việt Nam",
      "province": "Thái Nguyên",
      "oldLat": 21.597226,
      "oldLng": 105.8386288,
      "newLat": 21.6,
      "newLng": 105.833333,
      "osmDisplayName": "Bảo tàng Văn hóa các dân tộc Việt Nam",
      "confidence": 0.9,
      "errorKm": 0.63
    },
    {
      "name": "Hồ Núi Cốc",
      "province": "Thái Nguyên",
      "oldLat": 21.5774672,
      "oldLng": 105.70388,
      "newLat": 21.566667,
      "newLng": 105.683333,
      "osmDisplayName": "Hồ Núi Cốc",
      "confidence": 0.9,
      "errorKm": 2.44
    },
    {
      "name": "Thành nhà Hồ",
      "province": "Thanh Hóa",
      "oldLat": 20.077973,
      "oldLng": 105.6044596,
      "newLat": 20.083333,
      "newLng": 105.6,
      "osmDisplayName": "Thành nhà Hồ",
      "confidence": 0.9,
      "errorKm": 0.76
    },
    {
      "name": "Khu di tích Lam Kinh",
      "province": "Thanh Hóa",
      "oldLat": 19.9275606,
      "oldLng": 105.4035142,
      "newLat": 11.383333,
      "newLng": 106.166667,
      "osmDisplayName": "Khu di tích Lam Kinh",
      "confidence": 0.3,
      "errorKm": 953.57
    },
    {
      "name": "Bãi biển Sầm Sơn",
      "province": "Thanh Hóa",
      "oldLat": 19.7439948,
      "oldLng": 105.9067049,
      "newLat": 19.733333,
      "newLng": 105.9,
      "osmDisplayName": "Bãi biển Sầm Sơn",
      "confidence": 0.9,
      "errorKm": 1.38
    },
    {
      "name": "Đền Bà Triệu",
      "province": "Thanh Hóa",
      "oldLat": 20.0952954,
      "oldLng": 105.8567406,
      "newLat": 19.9,
      "newLng": 105.6,
      "osmDisplayName": "Đền Bà Triệu",
      "confidence": 0.6,
      "errorKm": 34.51
    },
    {
      "name": "Đại Nội Huế",
      "province": "Thừa Thiên Huế",
      "oldLat": 16.4689726,
      "oldLng": 107.5781266,
      "newLat": 16.466667,
      "newLng": 107.583333,
      "osmDisplayName": "Đại Nội Huế",
      "confidence": 0.9,
      "errorKm": 0.61
    },
    {
      "name": "Chùa Thiên Mụ",
      "province": "Thừa Thiên Huế",
      "oldLat": 16.4537195,
      "oldLng": 107.5445808,
      "newLat": 20.5,
      "newLng": 106.333333,
      "osmDisplayName": "Chùa Thiên Mụ",
      "confidence": 0.3,
      "errorKm": 467.7
    },
    {
      "name": "Lăng Khải Định",
      "province": "Thừa Thiên Huế",
      "oldLat": 16.3990174,
      "oldLng": 107.5903393,
      "newLat": 16.4,
      "newLng": 107.566667,
      "osmDisplayName": "Lăng Khải Định",
      "confidence": 0.9,
      "errorKm": 2.53
    },
    {
      "name": "Cầu Tràng Tiền",
      "province": "Thừa Thiên Huế",
      "oldLat": 21.8405935,
      "oldLng": 105.1985604,
      "newLat": 16.466667,
      "newLng": 107.583333,
      "osmDisplayName": "Cầu Tràng Tiền",
      "confidence": 0.3,
      "errorKm": 647.88
    },
    {
      "name": "Làng nghề đúc đồng Phường Đúc",
      "province": "Thừa Thiên Huế",
      "oldLat": 16.4667,
      "oldLng": 107.5667,
      "newLat": 16.466667,
      "newLng": 107.583333,
      "osmDisplayName": "Làng nghề đúc đồng Phường Đúc",
      "confidence": 0.9,
      "errorKm": 1.77
    },
    {
      "name": "Chùa Vĩnh Tràng",
      "province": "Tiền Giang",
      "oldLat": 10.3628375,
      "oldLng": 106.3735689,
      "newLat": 20.5,
      "newLng": 106.333333,
      "osmDisplayName": "Chùa Vĩnh Tràng",
      "confidence": 0.3,
      "errorKm": 1127.21
    },
    {
      "name": "Di tích lịch sử Rạch Gầm - Xoài Mút",
      "province": "Tiền Giang",
      "oldLat": 10.3250581,
      "oldLng": 106.2479211,
      "newLat": 11.383333,
      "newLng": 106.166667,
      "osmDisplayName": "Di tích lịch sử Rạch Gầm - Xoài Mút",
      "confidence": 0.3,
      "errorKm": 118.01
    },
    {
      "name": "Làng cổ Đông Hòa Hiệp",
      "province": "Tiền Giang",
      "oldLat": 10.3465203,
      "oldLng": 106.0079283,
      "newLat": 16.466667,
      "newLng": 107.583333,
      "osmDisplayName": "Làng cổ Đông Hòa Hiệp",
      "confidence": 0.3,
      "errorKm": 701.52
    },
    {
      "name": "Khu du lịch sinh thái Thới Sơn",
      "province": "Tiền Giang",
      "oldLat": 10.3333,
      "oldLng": 106.35,
      "newLat": 11.383333,
      "newLng": 106.166667,
      "osmDisplayName": "Khu du lịch sinh thái Thới Sơn",
      "confidence": 0.3,
      "errorKm": 118.46
    },
    {
      "name": "Nhà thờ Đức Bà Sài Gòn",
      "province": "TP. Hồ Chí Minh",
      "oldLat": 10.7737261,
      "oldLng": 106.7166008,
      "newLat": 10.779722,
      "newLng": 106.699167,
      "osmDisplayName": "Nhà thờ Đức Bà Sài Gòn",
      "confidence": 0.9,
      "errorKm": 2.02
    },
    {
      "name": "Bảo tàng Lịch sử Thành phố Hồ Chí Minh",
      "province": "TP. Hồ Chí Minh",
      "oldLat": 10.7879719,
      "oldLng": 106.7049563,
      "newLat": 10.779444,
      "newLng": 106.692222,
      "osmDisplayName": "Bảo tàng Lịch sử Thành phố Hồ Chí Minh",
      "confidence": 0.9,
      "errorKm": 1.68
    },
    {
      "name": "Bảo tàng Văn hóa dân tộc Khmer",
      "province": "Trà Vinh",
      "oldLat": 9.9333,
      "oldLng": 106.35,
      "newLat": 10.779444,
      "newLng": 106.692222,
      "osmDisplayName": "Bảo tàng Văn hóa dân tộc Khmer",
      "confidence": 0.3,
      "errorKm": 101.26
    },
    {
      "name": "Chùa Cò (Chùa Wath Samroang)",
      "province": "Trà Vinh",
      "oldLat": 9.9167,
      "oldLng": 106.3333,
      "newLat": 9.931667,
      "newLng": 106.345833,
      "osmDisplayName": "Chùa Cò (Chùa Wath Samroang)",
      "confidence": 0.9,
      "errorKm": 2.16
    },
    {
      "name": "Khu lưu niệm Chủ tịch Tôn Đức Thắng",
      "province": "Trà Vinh",
      "oldLat": 10.4053301,
      "oldLng": 105.4460627,
      "newLat": 10.25,
      "newLng": 106.366667,
      "osmDisplayName": "Khu lưu niệm Chủ tịch Tôn Đức Thắng",
      "confidence": 0.3,
      "errorKm": 102.18
    },
    {
      "name": "Khu di tích lịch sử Tân Trào",
      "province": "Tuyên Quang",
      "oldLat": 21.8584902,
      "oldLng": 105.4386361,
      "newLat": 21.95,
      "newLng": 105.416667,
      "osmDisplayName": "Khu di tích lịch sử Tân Trào",
      "confidence": 0.6,
      "errorKm": 10.42
    },
    {
      "name": "Thác Mơ",
      "province": "Tuyên Quang",
      "oldLat": 14.0217837,
      "oldLng": 107.6050329,
      "newLat": 22.033333,
      "newLng": 105.466667,
      "osmDisplayName": "Thác Mơ",
      "confidence": 0.3,
      "errorKm": 919.03
    },
    {
      "name": "Đền Hạ, Đền Thượng",
      "province": "Tuyên Quang",
      "oldLat": 21.0639191,
      "oldLng": 105.899098,
      "newLat": 21.816667,
      "newLng": 105.216667,
      "osmDisplayName": "Đền Hạ, Đền Thượng",
      "confidence": 0.3,
      "errorKm": 109.52
    },
    {
      "name": "Văn Thánh Miếu Vĩnh Long",
      "province": "Vĩnh Long",
      "oldLat": 10.2428918,
      "oldLng": 105.9846095,
      "newLat": 10.25,
      "newLng": 105.966667,
      "osmDisplayName": "Văn Thánh Miếu Vĩnh Long",
      "confidence": 0.9,
      "errorKm": 2.12
    },
    {
      "name": "Chùa Tiên Châu (Chùa Phật Lớn)",
      "province": "Vĩnh Long",
      "oldLat": 10.2415,
      "oldLng": 105.9682,
      "newLat": 9.931667,
      "newLng": 106.345833,
      "osmDisplayName": "Chùa Tiên Châu (Chùa Phật Lớn)",
      "confidence": 0.6,
      "errorKm": 53.82
    },
    {
      "name": "Nhà cổ Cai Cường",
      "province": "Vĩnh Long",
      "oldLat": 10.280653,
      "oldLng": 106.0103408,
      "newLat": 10.25,
      "newLng": 105.966667,
      "osmDisplayName": "Nhà cổ Cai Cường",
      "confidence": 0.9,
      "errorKm": 5.87
    },
    {
      "name": "Khu di tích lịch sử Cách mạng tỉnh Vĩnh Long",
      "province": "Vĩnh Long",
      "oldLat": 10.2356,
      "oldLng": 105.9634,
      "newLat": 21.95,
      "newLng": 105.416667,
      "osmDisplayName": "Khu di tích lịch sử Cách mạng tỉnh Vĩnh Long",
      "confidence": 0.3,
      "errorKm": 1303.89
    },
    {
      "name": "Đền thờ Hai Bà Trưng (Hạ Lôi)",
      "province": "Vĩnh Phúc",
      "oldLat": 21.3092,
      "oldLng": 105.5967,
      "newLat": 21.816667,
      "newLng": 105.216667,
      "osmDisplayName": "Đền thờ Hai Bà Trưng (Hạ Lôi)",
      "confidence": 0.6,
      "errorKm": 68.76
    },
    {
      "name": "Chùa Tây Thiên",
      "province": "Vĩnh Phúc",
      "oldLat": 10.7503791,
      "oldLng": 106.6468454,
      "newLat": 9.931667,
      "newLng": 106.345833,
      "osmDisplayName": "Chùa Tây Thiên",
      "confidence": 0.6,
      "errorKm": 96.81
    },
    {
      "name": "Khu di tích khảo cổ Đồng Đậu",
      "province": "Vĩnh Phúc",
      "oldLat": 21.2789,
      "oldLng": 105.6123,
      "newLat": 21.95,
      "newLng": 105.416667,
      "osmDisplayName": "Khu di tích khảo cổ Đồng Đậu",
      "confidence": 0.6,
      "errorKm": 77.31
    },
    {
      "name": "Tháp Bình Sơn",
      "province": "Vĩnh Phúc",
      "oldLat": 13.8990322,
      "oldLng": 108.9913034,
      "newLat": 21.283333,
      "newLng": 105.583333,
      "osmDisplayName": "Tháp Bình Sơn",
      "confidence": 0.3,
      "errorKm": 896.91
    },
    {
      "name": "Hồ Thác Bà",
      "province": "Yên Bái",
      "oldLat": 21.8791218,
      "oldLng": 104.9343782,
      "newLat": 22.033333,
      "newLng": 105.466667,
      "osmDisplayName": "Hồ Thác Bà",
      "confidence": 0.6,
      "errorKm": 57.51
    },
    {
      "name": "Đền Đông Cuông",
      "province": "Yên Bái",
      "oldLat": 21.0116703,
      "oldLng": 107.2604147,
      "newLat": 21.716667,
      "newLng": 104.883333,
      "osmDisplayName": "Đền Đông Cuông",
      "confidence": 0.3,
      "errorKm": 258.33
    },
    {
      "name": "Khu di tích lịch sử Căng Đồn Nghĩa Lộ",
      "province": "Yên Bái",
      "oldLat": 21.5833,
      "oldLng": 104.5167,
      "newLat": 21.95,
      "newLng": 105.416667,
      "osmDisplayName": "Khu di tích lịch sử Căng Đồn Nghĩa Lộ",
      "confidence": 0.3,
      "errorKm": 101.49
    },
    {
      "name": "Làng nghề dệt thổ cẩm Lùng Tâm",
      "province": "Yên Bái",
      "oldLat": 21.85,
      "oldLng": 104.1,
      "newLat": 22.15,
      "newLng": 104.583333,
      "osmDisplayName": "Làng nghề dệt thổ cẩm Lùng Tâm",
      "confidence": 0.6,
      "errorKm": 59.97
    },
    {
      "name": "Rừng tràm Trà Sư",
      "province": "An Giang",
      "oldLat": 10.5859015,
      "oldLng": 105.058267,
      "newLat": 10.55,
      "newLng": 105.083333,
      "osmDisplayName": "Rừng tràm Trà Sư",
      "confidence": 0.9,
      "errorKm": 4.84
    },
    {
      "name": "Núi Cấm",
      "province": "An Giang",
      "oldLat": 10.4910638,
      "oldLng": 104.9960909,
      "newLat": 10.516667,
      "newLng": 105.083333,
      "osmDisplayName": "Núi Cấm",
      "confidence": 0.9,
      "errorKm": 9.95
    },
    {
      "name": "Làng nổi Châu Đốc",
      "province": "An Giang",
      "oldLat": 20.7327174,
      "oldLng": 105.8717211,
      "newLat": 22.15,
      "newLng": 104.583333,
      "osmDisplayName": "Làng nổi Châu Đốc",
      "confidence": 0.3,
      "errorKm": 206.44
    },
    {
      "name": "Bãi Sau (Thùy Vân)",
      "province": "Bà Rịa - Vũng Tàu",
      "oldLat": 10.34,
      "oldLng": 107.0833,
      "newLat": 10.333333,
      "newLng": 107.083333,
      "osmDisplayName": "Bãi Sau (Thùy Vân)",
      "confidence": 0.9,
      "errorKm": 0.74
    },
    {
      "name": "Hồ Mây Park",
      "province": "Bà Rịa - Vũng Tàu",
      "oldLat": 10.3594711,
      "oldLng": 107.0676503,
      "newLat": 10.35,
      "newLng": 107.066667,
      "osmDisplayName": "Hồ Mây Park",
      "confidence": 0.9,
      "errorKm": 1.06
    },
    {
      "name": "Suối nước nóng Bình Châu",
      "province": "Bà Rịa - Vũng Tàu",
      "oldLat": 10.5924964,
      "oldLng": 107.562085,
      "newLat": 10.533333,
      "newLng": 107.416667,
      "osmDisplayName": "Suối nước nóng Bình Châu",
      "confidence": 0.6,
      "errorKm": 17.2
    },
    {
      "name": "Khu du lịch sinh thái Hồ Nam",
      "province": "Bạc Liêu",
      "oldLat": 9.3,
      "oldLng": 105.7,
      "newLat": 9.283333,
      "newLng": 105.716667,
      "osmDisplayName": "Khu du lịch sinh thái Hồ Nam",
      "confidence": 0.9,
      "errorKm": 2.6
    },
    {
      "name": "Khu du lịch sinh thái Suối Mỡ",
      "province": "Bắc Giang",
      "oldLat": 21.3833,
      "oldLng": 106.2,
      "newLat": 10.533333,
      "newLng": 107.416667,
      "osmDisplayName": "Khu du lịch sinh thái Suối Mỡ",
      "confidence": 0.3,
      "errorKm": 1213.43
    },
    {
      "name": "Đồi chè Tân Cương",
      "province": "Bắc Giang",
      "oldLat": 21.544137,
      "oldLng": 105.759957,
      "newLat": 21.6,
      "newLng": 105.833333,
      "osmDisplayName": "Đồi chè Tân Cương",
      "confidence": 0.9,
      "errorKm": 9.81
    },
    {
      "name": "Hồ Khuôn Thần",
      "province": "Bắc Giang",
      "oldLat": 21.4558886,
      "oldLng": 106.5206077,
      "newLat": 21.383333,
      "newLng": 106.2,
      "osmDisplayName": "Hồ Khuôn Thần",
      "confidence": 0.6,
      "errorKm": 34.15
    },
    {
      "name": "Thác Bản Giốc (Bắc Kạn)",
      "province": "Bắc Kạn",
      "oldLat": 22.45,
      "oldLng": 105.7,
      "newLat": 22.45,
      "newLng": 105.65,
      "osmDisplayName": "Thác Bản Giốc (Bắc Kạn)",
      "confidence": 0.9,
      "errorKm": 5.14
    },
    {
      "name": "Động Nàng Tiên",
      "province": "Bắc Kạn",
      "oldLat": 22.4,
      "oldLng": 105.65,
      "newLat": 22.15,
      "newLng": 105.833333,
      "osmDisplayName": "Động Nàng Tiên",
      "confidence": 0.6,
      "errorKm": 33.6
    },
    {
      "name": "Hồ Na Rì",
      "province": "Bắc Kạn",
      "oldLat": 22.2,
      "oldLng": 105.9,
      "newLat": 9.283333,
      "newLng": 105.716667,
      "osmDisplayName": "Hồ Na Rì",
      "confidence": 0.3,
      "errorKm": 1436.4
    },
    {
      "name": "Hồ Hoàn Kiếm Bắc Ninh (Hồ Điều Hòa)",
      "province": "Bắc Ninh",
      "oldLat": 21.1861,
      "oldLng": 106.0763,
      "newLat": 21.183333,
      "newLng": 106.05,
      "osmDisplayName": "Hồ Hoàn Kiếm Bắc Ninh (Hồ Điều Hòa)",
      "confidence": 0.9,
      "errorKm": 2.74
    },
    {
      "name": "Chợ đêm Bắc Ninh",
      "province": "Bắc Ninh",
      "oldLat": 21.1226782,
      "oldLng": 105.9652309,
      "newLat": 9.283333,
      "newLng": 105.716667,
      "osmDisplayName": "Chợ đêm Bắc Ninh",
      "confidence": 0.3,
      "errorKm": 1316.74
    },
    {
      "name": "Khu du lịch sinh thái Làng Bè",
      "province": "Bến Tre",
      "oldLat": 10.3276125,
      "oldLng": 106.3512572,
      "newLat": 22.15,
      "newLng": 104.583333,
      "osmDisplayName": "Khu du lịch sinh thái Làng Bè",
      "confidence": 0.3,
      "errorKm": 1328.01
    },
    {
      "name": "Hồ Phú An",
      "province": "Bình Dương",
      "oldLat": 11.0310973,
      "oldLng": 106.6932946,
      "newLat": 11,
      "newLng": 106.65,
      "osmDisplayName": "Hồ Phú An",
      "confidence": 0.9,
      "errorKm": 5.86
    },
    {
      "name": "Khu du lịch Đại Nam",
      "province": "Bình Dương",
      "oldLat": 11.0432629,
      "oldLng": 106.6347994,
      "newLat": 9.283333,
      "newLng": 105.716667,
      "osmDisplayName": "Khu du lịch Đại Nam",
      "confidence": 0.3,
      "errorKm": 219.99
    },
    {
      "name": "Bãi biển Quy Nhơn",
      "province": "Bình Định",
      "oldLat": 13.7586724,
      "oldLng": 109.2208112,
      "newLat": 13.766667,
      "newLng": 109.216667,
      "osmDisplayName": "Bãi biển Quy Nhơn",
      "confidence": 0.9,
      "errorKm": 1
    },
    {
      "name": "Thác Hầm Hô",
      "province": "Bình Định",
      "oldLat": 14,
      "oldLng": 108.9,
      "newLat": 22.45,
      "newLng": 105.65,
      "osmDisplayName": "Thác Hầm Hô",
      "confidence": 0.3,
      "errorKm": 1000.19
    },
    {
      "name": "Hồ Suối Giai",
      "province": "Bình Phước",
      "oldLat": 11.4170166,
      "oldLng": 106.8338485,
      "newLat": 10.533333,
      "newLng": 107.416667,
      "osmDisplayName": "Hồ Suối Giai",
      "confidence": 0.3,
      "errorKm": 117.06
    },
    {
      "name": "Khu du lịch Thác Voi",
      "province": "Bình Phước",
      "oldLat": 11.6,
      "oldLng": 106.9,
      "newLat": 11.533333,
      "newLng": 106.933333,
      "osmDisplayName": "Khu du lịch Thác Voi",
      "confidence": 0.9,
      "errorKm": 8.25
    },
    {
      "name": "Đồi cát bay Mũi Né",
      "province": "Bình Thuận",
      "oldLat": 10.9685906,
      "oldLng": 108.0032715,
      "newLat": 10.933333,
      "newLng": 108.283333,
      "osmDisplayName": "Đồi cát bay Mũi Né",
      "confidence": 0.6,
      "errorKm": 30.82
    },
    {
      "name": "Suối Tiên Mũi Né",
      "province": "Bình Thuận",
      "oldLat": 10.94941,
      "oldLng": 108.2062385,
      "newLat": 10.95,
      "newLng": 108.283333,
      "osmDisplayName": "Suối Tiên Mũi Né",
      "confidence": 0.9,
      "errorKm": 8.42
    },
    {
      "name": "Hồ Cà Giây",
      "province": "Bình Thuận",
      "oldLat": 11.3647744,
      "oldLng": 108.3933217,
      "newLat": 11.083333,
      "newLng": 108.083333,
      "osmDisplayName": "Hồ Cà Giây",
      "confidence": 0.6,
      "errorKm": 46.07
    },
    {
      "name": "Vườn chim Cà Mau",
      "province": "Cà Mau",
      "oldLat": 9.2400388,
      "oldLng": 105.7163625,
      "newLat": 9.183333,
      "newLng": 105.15,
      "osmDisplayName": "Vườn chim Cà Mau",
      "confidence": 0.6,
      "errorKm": 62.48
    },
    {
      "name": "Hồ nước ngọt U Minh",
      "province": "Cà Mau",
      "oldLat": 9.4121,
      "oldLng": 104.9876,
      "newLat": 9.416667,
      "newLng": 105.083333,
      "osmDisplayName": "Hồ nước ngọt U Minh",
      "confidence": 0.6,
      "errorKm": 10.51
    },
    {
      "name": "Bãi biển Khai Long",
      "province": "Cà Mau",
      "oldLat": 8.5668026,
      "oldLng": 104.8170964,
      "newLat": 8.683333,
      "newLng": 105.083333,
      "osmDisplayName": "Bãi biển Khai Long",
      "confidence": 0.6,
      "errorKm": 32.01
    },
    {
      "name": "Chợ nổi Cà Mau (chợ nổi trên sông Gành Hào)",
      "province": "Cà Mau",
      "oldLat": 9.1767,
      "oldLng": 105.15,
      "newLat": 9.183333,
      "newLng": 105.15,
      "osmDisplayName": "Chợ nổi Cà Mau (chợ nổi trên sông Gành Hào)",
      "confidence": 0.9,
      "errorKm": 0.74
    },
    {
      "name": "Hồ Thang Hen",
      "province": "Cao Bằng",
      "oldLat": 22.7581541,
      "oldLng": 106.2948146,
      "newLat": 22.666667,
      "newLng": 106.5,
      "osmDisplayName": "Hồ Thang Hen",
      "confidence": 0.6,
      "errorKm": 23.38
    },
    {
      "name": "Đèo Mã Phục",
      "province": "Cao Bằng",
      "oldLat": 22.7307473,
      "oldLng": 106.337545,
      "newLat": 22.75,
      "newLng": 106.416667,
      "osmDisplayName": "Đèo Mã Phục",
      "confidence": 0.9,
      "errorKm": 8.39
    },
    {
      "name": "Chợ phiên Bảo Lạc",
      "province": "Cao Bằng",
      "oldLat": 22.9345,
      "oldLng": 106.2345,
      "newLat": 22.933333,
      "newLng": 105.7,
      "osmDisplayName": "Chợ phiên Bảo Lạc",
      "confidence": 0.6,
      "errorKm": 54.74
    },
    {
      "name": "Vườn cò Bằng Lăng",
      "province": "Cần Thơ",
      "oldLat": 10.0456,
      "oldLng": 105.789,
      "newLat": 9.183333,
      "newLng": 105.15,
      "osmDisplayName": "Vườn cò Bằng Lăng",
      "confidence": 0.3,
      "errorKm": 118.75
    },
    {
      "name": "Hồ Búng Xáng",
      "province": "Cần Thơ",
      "oldLat": 10.0321,
      "oldLng": 105.7654,
      "newLat": 10.033333,
      "newLng": 105.783333,
      "osmDisplayName": "Hồ Búng Xáng",
      "confidence": 0.9,
      "errorKm": 1.97
    },
    {
      "name": "Chợ đêm Tây Đô",
      "province": "Cần Thơ",
      "oldLat": 9.6047043,
      "oldLng": 105.9766419,
      "newLat": 10.933333,
      "newLng": 108.1,
      "osmDisplayName": "Chợ đêm Tây Đô",
      "confidence": 0.3,
      "errorKm": 275.31
    },
    {
      "name": "Làng du lịch sinh thái Mỹ Khánh",
      "province": "Cần Thơ",
      "oldLat": 10.0123,
      "oldLng": 105.7234,
      "newLat": 10.016667,
      "newLng": 105.75,
      "osmDisplayName": "Làng du lịch sinh thái Mỹ Khánh",
      "confidence": 0.9,
      "errorKm": 2.95
    },
    {
      "name": "Bán đảo Sơn Trà",
      "province": "Đà Nẵng",
      "oldLat": 16.12049,
      "oldLng": 108.2647075,
      "newLat": 16.1,
      "newLng": 108.266667,
      "osmDisplayName": "Bán đảo Sơn Trà",
      "confidence": 0.9,
      "errorKm": 2.29
    },
    {
      "name": "Cầu Rồng",
      "province": "Đà Nẵng",
      "oldLat": 16.0611682,
      "oldLng": 108.2278968,
      "newLat": 16.066667,
      "newLng": 108.216667,
      "osmDisplayName": "Cầu Rồng",
      "confidence": 0.9,
      "errorKm": 1.35
    },
    {
      "name": "Chợ Hàn",
      "province": "Đà Nẵng",
      "oldLat": 16.0683525,
      "oldLng": 108.224283,
      "newLat": 16.066667,
      "newLng": 108.216667,
      "osmDisplayName": "Chợ Hàn",
      "confidence": 0.9,
      "errorKm": 0.84
    },
    {
      "name": "Thác Gia Long",
      "province": "Đắk Lắk",
      "oldLat": 12.5283265,
      "oldLng": 107.9148227,
      "newLat": 11.533333,
      "newLng": 106.933333,
      "osmDisplayName": "Thác Gia Long",
      "confidence": 0.3,
      "errorKm": 153.73
    },
    {
      "name": "Hồ Ea Kao",
      "province": "Đắk Lắk",
      "oldLat": 12.6069799,
      "oldLng": 108.0432693,
      "newLat": 12.666667,
      "newLng": 108.05,
      "osmDisplayName": "Hồ Ea Kao",
      "confidence": 0.9,
      "errorKm": 6.68
    },
    {
      "name": "Chợ đêm Buôn Ma Thuột",
      "province": "Đắk Lắk",
      "oldLat": 12.6810105,
      "oldLng": 108.0421969,
      "newLat": 10.933333,
      "newLng": 108.1,
      "osmDisplayName": "Chợ đêm Buôn Ma Thuột",
      "confidence": 0.3,
      "errorKm": 194.43
    },
    {
      "name": "Thác Liêng Nung",
      "province": "Đắk Nông",
      "oldLat": 11.9525891,
      "oldLng": 107.733896,
      "newLat": 11.533333,
      "newLng": 106.933333,
      "osmDisplayName": "Thác Liêng Nung",
      "confidence": 0.6,
      "errorKm": 98.84
    },
    {
      "name": "Hồ Tây Đắk Nông",
      "province": "Đắk Nông",
      "oldLat": 12.4567,
      "oldLng": 107.9012,
      "newLat": 12,
      "newLng": 107.7,
      "osmDisplayName": "Hồ Tây Đắk Nông",
      "confidence": 0.6,
      "errorKm": 55.29
    },
    {
      "name": "Vườn hoa Đắk Nông",
      "province": "Đắk Nông",
      "oldLat": 12.5678,
      "oldLng": 108.0123,
      "newLat": 9.183333,
      "newLng": 105.15,
      "osmDisplayName": "Vườn hoa Đắk Nông",
      "confidence": 0.3,
      "errorKm": 489.17
    },
    {
      "name": "Suối nước nóng Hua Pe",
      "province": "Điện Biên",
      "oldLat": 21.2345,
      "oldLng": 103.1234,
      "newLat": 21.383333,
      "newLng": 103.016667,
      "osmDisplayName": "Suối nước nóng Hua Pe",
      "confidence": 0.6,
      "errorKm": 19.9
    },
    {
      "name": "Đèo Pha Đin",
      "province": "Điện Biên",
      "oldLat": 21.5653452,
      "oldLng": 103.4782939,
      "newLat": 21.566667,
      "newLng": 103.416667,
      "osmDisplayName": "Đèo Pha Đin",
      "confidence": 0.9,
      "errorKm": 6.37
    },
    {
      "name": "Chợ đêm Điện Biên",
      "province": "Điện Biên",
      "oldLat": 12.6810105,
      "oldLng": 108.0421969,
      "newLat": 21.383333,
      "newLng": 103.016667,
      "osmDisplayName": "Chợ đêm Điện Biên",
      "confidence": 0.3,
      "errorKm": 1105.04
    },
    {
      "name": "Hồ Trị An",
      "province": "Đồng Nai",
      "oldLat": 11.18006,
      "oldLng": 107.1527297,
      "newLat": 11.083333,
      "newLng": 107.083333,
      "osmDisplayName": "Hồ Trị An",
      "confidence": 0.6,
      "errorKm": 13.15
    },
    {
      "name": "Thác Mai",
      "province": "Đồng Nai",
      "oldLat": 12.0623464,
      "oldLng": 107.1841837,
      "newLat": 11.316667,
      "newLng": 107.083333,
      "osmDisplayName": "Thác Mai",
      "confidence": 0.6,
      "errorKm": 83.64
    },
    {
      "name": "Vườn hoa Cát Tiên",
      "province": "Đồng Nai",
      "oldLat": 11.3456,
      "oldLng": 107.4567,
      "newLat": 11.416667,
      "newLng": 107.416667,
      "osmDisplayName": "Vườn hoa Cát Tiên",
      "confidence": 0.9,
      "errorKm": 9.03
    },
    {
      "name": "Vườn quốc gia Tràm Chim (khu vực ngắm chim)",
      "province": "Đồng Tháp",
      "oldLat": 10.6789,
      "oldLng": 105.5678,
      "newLat": 11.416667,
      "newLng": 107.416667,
      "osmDisplayName": "Vườn quốc gia Tràm Chim (khu vực ngắm chim)",
      "confidence": 0.3,
      "errorKm": 217.81
    },
    {
      "name": "Làng hoa Sa Đéc (khu vực mới)",
      "province": "Đồng Tháp",
      "oldLat": 10.789,
      "oldLng": 105.6789,
      "newLat": 10.3,
      "newLng": 105.766667,
      "osmDisplayName": "Làng hoa Sa Đéc (khu vực mới)",
      "confidence": 0.6,
      "errorKm": 55.21
    },
    {
      "name": "Chợ đêm Cao Lãnh",
      "province": "Đồng Tháp",
      "oldLat": 10.4541001,
      "oldLng": 105.6363101,
      "newLat": 21.383333,
      "newLng": 103.016667,
      "osmDisplayName": "Chợ đêm Cao Lãnh",
      "confidence": 0.3,
      "errorKm": 1247.02
    },
    {
      "name": "Thác Phú Cường",
      "province": "Gia Lai",
      "oldLat": 13.6616543,
      "oldLng": 108.1363774,
      "newLat": 11.316667,
      "newLng": 107.083333,
      "osmDisplayName": "Thác Phú Cường",
      "confidence": 0.3,
      "errorKm": 284.71
    },
    {
      "name": "Hồ Tơ Nưng (Biển Hồ)",
      "province": "Gia Lai",
      "oldLat": 14.0453573,
      "oldLng": 107.9980662,
      "newLat": 13.983333,
      "newLng": 108,
      "osmDisplayName": "Hồ Tơ Nưng (Biển Hồ)",
      "confidence": 0.9,
      "errorKm": 6.9
    },
    {
      "name": "Chùa Minh Thành",
      "province": "Gia Lai",
      "oldLat": 10.7658338,
      "oldLng": 106.6716779,
      "newLat": 13.983333,
      "newLng": 108,
      "osmDisplayName": "Chùa Minh Thành",
      "confidence": 0.3,
      "errorKm": 385.76
    },
    {
      "name": "Khu du lịch sinh thái Đồng Xanh",
      "province": "Gia Lai",
      "oldLat": 13.92,
      "oldLng": 108.05,
      "newLat": 13.983333,
      "newLng": 108,
      "osmDisplayName": "Khu du lịch sinh thái Đồng Xanh",
      "confidence": 0.9,
      "errorKm": 8.87
    },
    {
      "name": "Đèo Mã Pí Lèng",
      "province": "Hà Giang",
      "oldLat": 23.2167,
      "oldLng": 105.4167,
      "newLat": 23.233333,
      "newLng": 105.366667,
      "osmDisplayName": "Đèo Mã Pí Lèng",
      "confidence": 0.9,
      "errorKm": 5.44
    },
    {
      "name": "Sông Nho Quế",
      "province": "Hà Giang",
      "oldLat": 23.2,
      "oldLng": 105.4333,
      "newLat": 23.233333,
      "newLng": 105.366667,
      "osmDisplayName": "Sông Nho Quế",
      "confidence": 0.9,
      "errorKm": 7.75
    },
    {
      "name": "Chợ phiên Đồng Văn",
      "province": "Hà Giang",
      "oldLat": 11.964995,
      "oldLng": 108.4459678,
      "newLat": 23.283333,
      "newLng": 105.366667,
      "osmDisplayName": "Chợ phiên Đồng Văn",
      "confidence": 0.3,
      "errorKm": 1299.99
    },
    {
      "name": "Hồ Tam Chúc",
      "province": "Hà Nam",
      "oldLat": 20.5632177,
      "oldLng": 105.8002373,
      "newLat": 20.55,
      "newLng": 105.916667,
      "osmDisplayName": "Hồ Tam Chúc",
      "confidence": 0.6,
      "errorKm": 12.21
    },
    {
      "name": "Khu du lịch sinh thái Đồng Đò",
      "province": "Hà Nam",
      "oldLat": 20.5167,
      "oldLng": 105.8667,
      "newLat": 13.983333,
      "newLng": 108,
      "osmDisplayName": "Khu du lịch sinh thái Đồng Đò",
      "confidence": 0.3,
      "errorKm": 760.93
    },
    {
      "name": "Hồ Tây",
      "province": "Hà Nội",
      "oldLat": 21.0580419,
      "oldLng": 105.8139655,
      "newLat": 21.066667,
      "newLng": 105.833333,
      "osmDisplayName": "Hồ Tây",
      "confidence": 0.9,
      "errorKm": 2.23
    },
    {
      "name": "Chợ đêm Đồng Xuân",
      "province": "Hà Nội",
      "oldLat": 11.9414964,
      "oldLng": 108.4372724,
      "newLat": 21.383333,
      "newLng": 103.016667,
      "osmDisplayName": "Chợ đêm Đồng Xuân",
      "confidence": 0.3,
      "errorKm": 1197.79
    },
    {
      "name": "Vườn hoa Nhật Tân",
      "province": "Hà Nội",
      "oldLat": 21.0833,
      "oldLng": 105.8333,
      "newLat": 11.416667,
      "newLng": 107.416667,
      "osmDisplayName": "Vườn hoa Nhật Tân",
      "confidence": 0.3,
      "errorKm": 1088.05
    },
    {
      "name": "Cầu Long Biên",
      "province": "Hà Nội",
      "oldLat": 21.0431405,
      "oldLng": 105.8581747,
      "newLat": 21.033333,
      "newLng": 105.85,
      "osmDisplayName": "Cầu Long Biên",
      "confidence": 0.9,
      "errorKm": 1.38
    },
    {
      "name": "Biển Xuân Thành",
      "province": "Hà Tĩnh",
      "oldLat": 21.1398268,
      "oldLng": 105.4362296,
      "newLat": 13.983333,
      "newLng": 108,
      "osmDisplayName": "Biển Xuân Thành",
      "confidence": 0.3,
      "errorKm": 840.83
    },
    {
      "name": "Thác Vũ Môn",
      "province": "Hà Tĩnh",
      "oldLat": 18.3,
      "oldLng": 105.8,
      "newLat": 11.316667,
      "newLng": 107.083333,
      "osmDisplayName": "Thác Vũ Môn",
      "confidence": 0.3,
      "errorKm": 788.65
    },
    {
      "name": "Khu du lịch sinh thái Hồ Kẻ Gỗ",
      "province": "Hà Tĩnh",
      "oldLat": 18.4,
      "oldLng": 105.85,
      "newLat": 13.983333,
      "newLng": 108,
      "osmDisplayName": "Khu du lịch sinh thái Hồ Kẻ Gỗ",
      "confidence": 0.3,
      "errorKm": 542.09
    },
    {
      "name": "Hồ Bến Tắm",
      "province": "Hải Dương",
      "oldLat": 21.1807366,
      "oldLng": 106.4481971,
      "newLat": 20.9375,
      "newLng": 106.333333,
      "osmDisplayName": "Hồ Bến Tắm",
      "confidence": 0.6,
      "errorKm": 29.56
    },
    {
      "name": "Thác Voi (Hải Dương)",
      "province": "Hải Dương",
      "oldLat": 21.0987,
      "oldLng": 106.4321,
      "newLat": 21.033333,
      "newLng": 106.3,
      "osmDisplayName": "Thác Voi (Hải Dương)",
      "confidence": 0.6,
      "errorKm": 15.52
    },
    {
      "name": "Vườn hoa thành phố Hải Dương",
      "province": "Hải Dương",
      "oldLat": 21.1086948,
      "oldLng": 106.3853107,
      "newLat": 20.9375,
      "newLng": 106.333333,
      "osmDisplayName": "Vườn hoa thành phố Hải Dương",
      "confidence": 0.6,
      "errorKm": 19.79
    },
    {
      "name": "Bãi biển Đồ Sơn 2",
      "province": "Hải Phòng",
      "oldLat": 20.7111,
      "oldLng": 106.7894,
      "newLat": 20.716667,
      "newLng": 106.783333,
      "osmDisplayName": "Bãi biển Đồ Sơn 2",
      "confidence": 0.9,
      "errorKm": 0.88
    },
    {
      "name": "Núi Voi (Hải Phòng)",
      "province": "Hải Phòng",
      "oldLat": 20.839706,
      "oldLng": 106.567777,
      "newLat": 20.85,
      "newLng": 106.683333,
      "osmDisplayName": "Núi Voi (Hải Phòng)",
      "confidence": 0.6,
      "errorKm": 12.06
    },
    {
      "name": "Vườn cây ăn trái Phú Hữu",
      "province": "Hậu Giang",
      "oldLat": 9.7567,
      "oldLng": 105.6234,
      "newLat": 20.9375,
      "newLng": 106.333333,
      "osmDisplayName": "Vườn cây ăn trái Phú Hữu",
      "confidence": 0.3,
      "errorKm": 1245.57
    },
    {
      "name": "Khu du lịch sinh thái Tây Đô",
      "province": "Hậu Giang",
      "oldLat": 9.789,
      "oldLng": 105.6543,
      "newLat": 9.933333,
      "newLng": 105.65,
      "osmDisplayName": "Khu du lịch sinh thái Tây Đô",
      "confidence": 0.6,
      "errorKm": 16.06
    },
    {
      "name": "Chợ nổi Ngã Bảy",
      "province": "Hậu Giang",
      "oldLat": 9.8123,
      "oldLng": 105.6789,
      "newLat": 9.816667,
      "newLng": 105.816667,
      "osmDisplayName": "Chợ nổi Ngã Bảy",
      "confidence": 0.6,
      "errorKm": 15.1
    },
    {
      "name": "Thác Bản Giốc (Hòa Bình)",
      "province": "Hòa Bình",
      "oldLat": 20.65,
      "oldLng": 105.2333,
      "newLat": 21.033333,
      "newLng": 106.3,
      "osmDisplayName": "Thác Bản Giốc (Hòa Bình)",
      "confidence": 0.3,
      "errorKm": 118.76
    },
    {
      "name": "Hồ Thung Nai",
      "province": "Hòa Bình",
      "oldLat": 21.0917325,
      "oldLng": 104.6944324,
      "newLat": 20.65,
      "newLng": 105.333333,
      "osmDisplayName": "Hồ Thung Nai",
      "confidence": 0.6,
      "errorKm": 82.58
    },
    {
      "name": "Khu du lịch suối khoáng Kim Bôi",
      "province": "Hòa Bình",
      "oldLat": 20.5667,
      "oldLng": 105.5167,
      "newLat": 9.933333,
      "newLng": 105.65,
      "osmDisplayName": "Khu du lịch suối khoáng Kim Bôi",
      "confidence": 0.3,
      "errorKm": 1182.46
    },
    {
      "name": "Vườn hoa cẩm tú cầu Hưng Yên",
      "province": "Hưng Yên",
      "oldLat": 20.6833,
      "oldLng": 106.0833,
      "newLat": 20.9375,
      "newLng": 106.333333,
      "osmDisplayName": "Vườn hoa cẩm tú cầu Hưng Yên",
      "confidence": 0.6,
      "errorKm": 38.4
    },
    {
      "name": "Chợ đêm phố Hiến",
      "province": "Hưng Yên",
      "oldLat": 20.645,
      "oldLng": 106.05,
      "newLat": 20.727778,
      "newLng": 107.048889,
      "osmDisplayName": "Chợ đêm phố Hiến",
      "confidence": 0.3,
      "errorKm": 104.32
    },
    {
      "name": "Bãi biển Dốc Lết",
      "province": "Khánh Hòa",
      "oldLat": 12.5593789,
      "oldLng": 109.231646,
      "newLat": 20.716667,
      "newLng": 106.783333,
      "osmDisplayName": "Bãi biển Dốc Lết",
      "confidence": 0.3,
      "errorKm": 943.73
    },
    {
      "name": "Vịnh Vân Phong",
      "province": "Khánh Hòa",
      "oldLat": 12.5972452,
      "oldLng": 109.2726032,
      "newLat": 12.6,
      "newLng": 109.4,
      "osmDisplayName": "Vịnh Vân Phong",
      "confidence": 0.6,
      "errorKm": 13.83
    },
    {
      "name": "Thác Yang Bay",
      "province": "Khánh Hòa",
      "oldLat": 12.1885293,
      "oldLng": 108.9105845,
      "newLat": 21.033333,
      "newLng": 106.3,
      "osmDisplayName": "Thác Yang Bay",
      "confidence": 0.3,
      "errorKm": 1021.98
    },
    {
      "name": "Chợ đêm Nha Trang",
      "province": "Khánh Hòa",
      "oldLat": 12.245,
      "oldLng": 109.195,
      "newLat": 20.727778,
      "newLng": 107.048889,
      "osmDisplayName": "Chợ đêm Nha Trang",
      "confidence": 0.3,
      "errorKm": 970.54
    },
    {
      "name": "Bãi biển Dương Đông (Phú Quốc)",
      "province": "Kiên Giang",
      "oldLat": 10.2167,
      "oldLng": 103.9667,
      "newLat": 20.716667,
      "newLng": 106.783333,
      "osmDisplayName": "Bãi biển Dương Đông (Phú Quốc)",
      "confidence": 0.3,
      "errorKm": 1205.8
    },
    {
      "name": "Vườn quốc gia Phú Quốc",
      "province": "Kiên Giang",
      "oldLat": 10.3282981,
      "oldLng": 104.0246367,
      "newLat": 20.9375,
      "newLng": 106.333333,
      "osmDisplayName": "Vườn quốc gia Phú Quốc",
      "confidence": 0.3,
      "errorKm": 1205.23
    },
    {
      "name": "Suối Tranh (Phú Quốc)",
      "province": "Kiên Giang",
      "oldLat": 10.2114284,
      "oldLng": 103.9951419,
      "newLat": 20.683333,
      "newLng": 105.533333,
      "osmDisplayName": "Suối Tranh (Phú Quốc)",
      "confidence": 0.3,
      "errorKm": 1176
    },
    {
      "name": "Chợ đêm Phú Quốc",
      "province": "Kiên Giang",
      "oldLat": 10.325257,
      "oldLng": 103.8568119,
      "newLat": 20.727778,
      "newLng": 107.048889,
      "osmDisplayName": "Chợ đêm Phú Quốc",
      "confidence": 0.3,
      "errorKm": 1206.04
    },
    {
      "name": "Thác Pa Sỹ",
      "province": "Kon Tum",
      "oldLat": 14.59705,
      "oldLng": 108.2566602,
      "newLat": 21.033333,
      "newLng": 106.3,
      "osmDisplayName": "Thác Pa Sỹ",
      "confidence": 0.3,
      "errorKm": 745.01
    },
    {
      "name": "Hồ Đăk Uy",
      "province": "Kon Tum",
      "oldLat": 14.5424662,
      "oldLng": 107.9831365,
      "newLat": 14.5,
      "newLng": 107.833333,
      "osmDisplayName": "Hồ Đăk Uy",
      "confidence": 0.6,
      "errorKm": 16.8
    },
    {
      "name": "Cầu treo Kon Klor",
      "province": "Kon Tum",
      "oldLat": 14.3469891,
      "oldLng": 108.0355259,
      "newLat": 14.383333,
      "newLng": 107.983333,
      "osmDisplayName": "Cầu treo Kon Klor",
      "confidence": 0.9,
      "errorKm": 6.92
    },
    {
      "name": "Chợ Kon Tum",
      "province": "Kon Tum",
      "oldLat": 14.3491155,
      "oldLng": 108.0030805,
      "newLat": 14.383333,
      "newLng": 107.983333,
      "osmDisplayName": "Chợ Kon Tum",
      "confidence": 0.9,
      "errorKm": 4.36
    },
    {
      "name": "Thác Mường So",
      "province": "Lai Châu",
      "oldLat": 22.2,
      "oldLng": 103.2,
      "newLat": 22.066667,
      "newLng": 103.15,
      "osmDisplayName": "Thác Mường So",
      "confidence": 0.6,
      "errorKm": 15.69
    },
    {
      "name": "Hồ Thủy điện Sơn La (Lai Châu)",
      "province": "Lai Châu",
      "oldLat": 21.9,
      "oldLng": 103.5,
      "newLat": 21.5,
      "newLng": 103.916667,
      "osmDisplayName": "Hồ Thủy điện Sơn La (Lai Châu)",
      "confidence": 0.6,
      "errorKm": 61.9
    },
    {
      "name": "Đèo Khau Cọ",
      "province": "Lai Châu",
      "oldLat": 22.0490167,
      "oldLng": 103.9600624,
      "newLat": 22.05,
      "newLng": 103.25,
      "osmDisplayName": "Đèo Khau Cọ",
      "confidence": 0.6,
      "errorKm": 73.18
    },
    {
      "name": "Chợ phiên Sìn Hồ",
      "province": "Lai Châu",
      "oldLat": 22.45,
      "oldLng": 103.3,
      "newLat": 22.35,
      "newLng": 103.3,
      "osmDisplayName": "Chợ phiên Sìn Hồ",
      "confidence": 0.6,
      "errorKm": 11.12
    },
    {
      "name": "Thác Datanla",
      "province": "Lâm Đồng",
      "oldLat": 11.9011774,
      "oldLng": 108.4488444,
      "newLat": 22.066667,
      "newLng": 103.15,
      "osmDisplayName": "Thác Datanla",
      "confidence": 0.3,
      "errorKm": 1262.6
    },
    {
      "name": "Hồ Xuân Hương",
      "province": "Lâm Đồng",
      "oldLat": 11.9450803,
      "oldLng": 108.4487222,
      "newLat": 11.95,
      "newLng": 108.433333,
      "osmDisplayName": "Hồ Xuân Hương",
      "confidence": 0.9,
      "errorKm": 1.76
    },
    {
      "name": "Vườn hoa thành phố Đà Lạt",
      "province": "Lâm Đồng",
      "oldLat": 11.9502809,
      "oldLng": 108.4499447,
      "newLat": 11.95,
      "newLng": 108.433333,
      "osmDisplayName": "Vườn hoa thành phố Đà Lạt",
      "confidence": 0.9,
      "errorKm": 1.81
    },
    {
      "name": "Chợ đêm Đà Lạt",
      "province": "Lâm Đồng",
      "oldLat": 11.9414964,
      "oldLng": 108.4372724,
      "newLat": 11.95,
      "newLng": 108.433333,
      "osmDisplayName": "Chợ đêm Đà Lạt",
      "confidence": 0.9,
      "errorKm": 1.04
    },
    {
      "name": "Thác Bản Giốc (Lạng Sơn)",
      "province": "Lạng Sơn",
      "oldLat": 22.1564,
      "oldLng": 106.7519,
      "newLat": 22.066667,
      "newLng": 103.15,
      "osmDisplayName": "Thác Bản Giốc (Lạng Sơn)",
      "confidence": 0.3,
      "errorKm": 371.18
    },
    {
      "name": "Núi Mẫu Sơn",
      "province": "Lạng Sơn",
      "oldLat": 21.8436703,
      "oldLng": 106.9797872,
      "newLat": 21.883333,
      "newLng": 106.983333,
      "osmDisplayName": "Núi Mẫu Sơn",
      "confidence": 0.9,
      "errorKm": 4.43
    },
    {
      "name": "Hồ Thác Bà (Lạng Sơn)",
      "province": "Lạng Sơn",
      "oldLat": 22.15,
      "oldLng": 106.7,
      "newLat": 22.066667,
      "newLng": 103.15,
      "osmDisplayName": "Hồ Thác Bà (Lạng Sơn)",
      "confidence": 0.3,
      "errorKm": 365.83
    },
    {
      "name": "Chợ Đông Kinh",
      "province": "Lạng Sơn",
      "oldLat": 21.0271958,
      "oldLng": 105.8565753,
      "newLat": 11.95,
      "newLng": 108.433333,
      "osmDisplayName": "Chợ Đông Kinh",
      "confidence": 0.3,
      "errorKm": 1045.97
    },
    {
      "name": "Thác Tình Yêu",
      "province": "Lào Cai",
      "oldLat": 22.3473362,
      "oldLng": 103.7724285,
      "newLat": 22.066667,
      "newLng": 103.15,
      "osmDisplayName": "Thác Tình Yêu",
      "confidence": 0.6,
      "errorKm": 71.27
    },
    {
      "name": "Bãi đá cổ Sa Pa",
      "province": "Lào Cai",
      "oldLat": 22.3069302,
      "oldLng": 104.1829592,
      "newLat": 22.35,
      "newLng": 103.833333,
      "osmDisplayName": "Bãi đá cổ Sa Pa",
      "confidence": 0.6,
      "errorKm": 36.28
    },
    {
      "name": "Hồ Séo Mý Tỷ",
      "province": "Lào Cai",
      "oldLat": 22.2505885,
      "oldLng": 103.8916075,
      "newLat": 22.35,
      "newLng": 103.833333,
      "osmDisplayName": "Hồ Séo Mý Tỷ",
      "confidence": 0.6,
      "errorKm": 12.58
    },
    {
      "name": "Chợ Cốc Lếu",
      "province": "Lào Cai",
      "oldLat": 22.5019169,
      "oldLng": 103.9681433,
      "newLat": 22.483333,
      "newLng": 103.966667,
      "osmDisplayName": "Chợ Cốc Lếu",
      "confidence": 0.9,
      "errorKm": 2.07
    },
    {
      "name": "Khu du lịch sinh thái Đồng Tháp Mười",
      "province": "Long An",
      "oldLat": 10.7,
      "oldLng": 106,
      "newLat": 10.666667,
      "newLng": 105.75,
      "osmDisplayName": "Khu du lịch sinh thái Đồng Tháp Mười",
      "confidence": 0.6,
      "errorKm": 27.57
    },
    {
      "name": "Chùa Phước Lâm",
      "province": "Long An",
      "oldLat": 10.5315821,
      "oldLng": 106.6006017,
      "newLat": 10.533333,
      "newLng": 106.416667,
      "osmDisplayName": "Chùa Phước Lâm",
      "confidence": 0.6,
      "errorKm": 20.11
    },
    {
      "name": "Vườn hoa Long An",
      "province": "Long An",
      "oldLat": 20.9823955,
      "oldLng": 105.7398418,
      "newLat": 11.95,
      "newLng": 108.433333,
      "osmDisplayName": "Vườn hoa Long An",
      "confidence": 0.3,
      "errorKm": 1044.51
    },
    {
      "name": "Khu du lịch Bình Châu",
      "province": "Long An",
      "oldLat": 10.65,
      "oldLng": 106.2,
      "newLat": 10.666667,
      "newLng": 105.75,
      "osmDisplayName": "Khu du lịch Bình Châu",
      "confidence": 0.6,
      "errorKm": 49.21
    },
    {
      "name": "Bãi biển Thịnh Long",
      "province": "Nam Định",
      "oldLat": 20.1,
      "oldLng": 106.3,
      "newLat": 20,
      "newLng": 106.2,
      "osmDisplayName": "Bãi biển Thịnh Long",
      "confidence": 0.6,
      "errorKm": 15.26
    },
    {
      "name": "Vườn quốc gia Xuân Thủy",
      "province": "Nam Định",
      "oldLat": 20.2279425,
      "oldLng": 106.5826006,
      "newLat": 11.95,
      "newLng": 108.433333,
      "osmDisplayName": "Vườn quốc gia Xuân Thủy",
      "confidence": 0.3,
      "errorKm": 941.42
    },
    {
      "name": "Chợ Rồng Nam Định",
      "province": "Nam Định",
      "oldLat": 20.4284803,
      "oldLng": 106.1732415,
      "newLat": 20.433333,
      "newLng": 106.166667,
      "osmDisplayName": "Chợ Rồng Nam Định",
      "confidence": 0.9,
      "errorKm": 0.87
    },
    {
      "name": "Bãi biển Cửa Hội",
      "province": "Nghệ An",
      "oldLat": 15.8980583,
      "oldLng": 108.3662256,
      "newLat": 18.8,
      "newLng": 105.75,
      "osmDisplayName": "Bãi biển Cửa Hội",
      "confidence": 0.3,
      "errorKm": 425.68
    },
    {
      "name": "Thác Khe Kèm",
      "province": "Nghệ An",
      "oldLat": 19,
      "oldLng": 104.8,
      "newLat": 19.05,
      "newLng": 104.9,
      "osmDisplayName": "Thác Khe Kèm",
      "confidence": 0.6,
      "errorKm": 11.89
    },
    {
      "name": "Vườn quốc gia Pù Mát",
      "province": "Nghệ An",
      "oldLat": 18.9496787,
      "oldLng": 104.6817847,
      "newLat": 19,
      "newLng": 104.9,
      "osmDisplayName": "Vườn quốc gia Pù Mát",
      "confidence": 0.6,
      "errorKm": 23.62
    },
    {
      "name": "Suối nước nóng Hội Vân",
      "province": "Nghệ An",
      "oldLat": 18.9,
      "oldLng": 105.5,
      "newLat": 19,
      "newLng": 105,
      "osmDisplayName": "Suối nước nóng Hội Vân",
      "confidence": 0.6,
      "errorKm": 53.75
    },
    {
      "name": "Hồ Đồng Thái",
      "province": "Ninh Bình",
      "oldLat": 20.0831631,
      "oldLng": 105.961767,
      "newLat": 20.25,
      "newLng": 105.9,
      "osmDisplayName": "Hồ Đồng Thái",
      "confidence": 0.6,
      "errorKm": 19.64
    },
    {
      "name": "Đầm Vân Long",
      "province": "Ninh Bình",
      "oldLat": 10.7643251,
      "oldLng": 106.6387195,
      "newLat": 20.35,
      "newLng": 105.9,
      "osmDisplayName": "Đầm Vân Long",
      "confidence": 0.3,
      "errorKm": 1068.8
    },
    {
      "name": "Chùa Địch Lộng",
      "province": "Ninh Bình",
      "oldLat": 21.0371673,
      "oldLng": 105.7951809,
      "newLat": 20.25,
      "newLng": 105.95,
      "osmDisplayName": "Chùa Địch Lộng",
      "confidence": 0.6,
      "errorKm": 89
    },
    {
      "name": "Khu du lịch sinh thái Thung Nham",
      "province": "Ninh Bình",
      "oldLat": 20.2333,
      "oldLng": 105.9167,
      "newLat": 20.25,
      "newLng": 105.9,
      "osmDisplayName": "Khu du lịch sinh thái Thung Nham",
      "confidence": 0.9,
      "errorKm": 2.55
    },
    {
      "name": "Bãi biển Bình Sơn",
      "province": "Ninh Thuận",
      "oldLat": 11.5667,
      "oldLng": 108.9833,
      "newLat": 18.8,
      "newLng": 105.75,
      "osmDisplayName": "Bãi biển Bình Sơn",
      "confidence": 0.3,
      "errorKm": 875.84
    },
    {
      "name": "Vườn quốc gia Phước Bình",
      "province": "Ninh Thuận",
      "oldLat": 12.0702041,
      "oldLng": 108.7556019,
      "newLat": 19,
      "newLng": 104.9,
      "osmDisplayName": "Vườn quốc gia Phước Bình",
      "confidence": 0.3,
      "errorKm": 874.14
    },
    {
      "name": "Đồi cát Nam Cương",
      "province": "Ninh Thuận",
      "oldLat": 11.5833,
      "oldLng": 108.95,
      "newLat": 11.6,
      "newLng": 108.95,
      "osmDisplayName": "Đồi cát Nam Cương",
      "confidence": 0.9,
      "errorKm": 1.86
    },
    {
      "name": "Thác Tà Năng",
      "province": "Ninh Thuận",
      "oldLat": 16.0923715,
      "oldLng": 107.9426663,
      "newLat": 19.05,
      "newLng": 104.9,
      "osmDisplayName": "Thác Tà Năng",
      "confidence": 0.3,
      "errorKm": 460.61
    },